city,latitude,longitude
Aba,47.02907,18.52172
Abádszalók,47.46667,20.6
Abaliget,46.14258,18.11683
Abaliget,46.26667,18.15
Abasár,47.79705,20.00324
Abaújalpár,48.30672,21.23318
Abaújkér,48.3,21.2
Abaújlak,48.4,20.96667
Abaújszántó,48.28333,21.2
Abaújszolnok,48.36667,20.98333
Abaújvár,48.53333,21.31667
Abda,47.69464,17.54489
Abod,48.4,20.8
Abony,47.1899,20.00476
Ábrahámhegy,46.80998,17.55561
Ács,47.71231,18.01131
Ács,46.68333,19.16667
Acsa,47.79425,19.38795
Acsád,47.32493,16.7335
Acsalag,47.67846,17.19708
Ácsteszér,47.40532,18.00625
Adács,47.6921,19.97696
Ádánd,46.85931,18.16442
Adásztevel,47.30341,17.54087
Adony,47.1194,18.86493
Adorjánháza,47.24352,17.23961
Adorjás,45.85056,18.06278
Ág,46.29628,18.20233
Ágasegyháza,46.84025,19.45208
Ágfalva,47.68991,16.51658
Aggtelek,48.46667,20.51667
Agyagosszergény,47.61009,16.93794
Ajak,48.17664,22.06273
Ajka,47.10196,17.55892
Aka,47.40236,18.07127
Akasztó,47.13333,21.08333
Akasztó,46.69167,19.20423
Alacska,48.21667,20.65
Alap,46.79915,18.68938
Alattyán,47.42705,20.04219
Albertirsa,47.24315,19.61686
Alcsútdoboz,47.42837,18.60431
Aldebrő,47.78916,20.2303
Algyő,46.33472,20.20849
Alibánfa,46.88504,16.92071
Almamellék,46.15691,17.87404
Almásfüzitő,47.72752,18.26153
Almásháza,46.84457,17.04697
Almáskamarás,46.46667,21.1
Almáskeresztúr,46.11994,17.89562
Álmosd,47.4187,21.97803
Alsóberecki,48.35,21.7
Alsóbogát,46.5,17.75
Alsódobsza,48.18333,21
Alsógagy,48.4,21.03333
Alsómocsolád,46.31417,18.24794
Alsónána,46.25165,18.6574
Alsónémedi,47.31524,19.15843
Alsónemesapáti,46.85341,16.93532
Alsónyék,46.2019,18.73447
Alsóörs,46.99126,17.97562
Alsópáhok,46.7693,17.17157
Alsópetény,47.87582,19.24403
Alsórajk,46.65487,16.99678
Alsóregmec,48.46667,21.61667
Alsószenterzsébet,46.74507,16.47772
Alsószentiván,47.14198,19.06583
Alsószentiván,46.78657,18.72962
Alsószentmárton,45.78955,18.30575
Alsószölnök,46.92694,16.20243
Alsószuha,48.37142,20.50452
Alsótelekes,48.41667,20.66667
Alsótold,47.95181,19.59724
Alsóújlak,47.08047,16.8538
Alsóvadász,48.25,20.91667
Alsózsolca,48.06982,20.88046
Ambrózfalva,46.35,20.73333
Anarcs,48.17642,22.11167
Andocs,46.64828,17.92773
Andornaktálya,47.85,20.41667
Andrásfa,46.96439,16.79295
Annavölgy,47.7,18.66667
Apácatorna,47.11342,17.29442
Apagy,47.96431,21.93539
Apaj,47.11325,19.08806
Aparhant,46.32868,18.44896
Apátfalva,46.16667,20.58333
Apátistvánfalva,46.89621,16.2553
Apátvarasd,46.18684,18.48038
Apc,47.79419,19.69429
Áporka,47.23333,19.01667
Apostag,46.88208,18.9621
Aranyosapáti,48.20595,22.25916
Aranyosgadány,46.00626,18.12057
Arka,48.35,21.25
Arló,48.18333,20.26667
Arnót,48.13058,20.85832
Ároktő,47.73333,20.95
Árpádhalom,46.61667,20.55
Árpás,48.28333,21.73333
Árpás,47.51342,17.39336
Ártánd,47.11667,21.76667
Ásotthalom,46.19875,19.78334
Ásványráró,47.82733,17.49418
Aszaló,48.21667,20.96667
Ászár,47.51166,18.0015
Aszód,47.65174,19.4785
Aszófő,46.92858,17.83313
Áta,45.93896,18.29853
Átány,47.61559,20.36247
Atkár,47.72079,19.89126
Attala,46.37805,18.06386
Babarc,46.00424,18.55179
Babarcszőlős,45.9,18.13639
Babócsa,46.04155,17.34332
Babócsa,46.03333,17.36667
Bábolna,47.64361,17.97798
Bábolna,47.65,17.95
Bábonymegyer,46.75352,18.09539
Babosdöbréte,46.81476,16.78011
Babót,47.57571,17.07429
Bácsalmás,46.12648,19.3326
Bácsbokod,46.125,19.15621
Bácsborsód,46.0987,19.15806
Bácsszentgyörgy,45.9727,19.03622
Bácsszőlős,46.15,19.45
Badacsonytomaj,46.80711,17.51385
Badacsonytördemic,46.81068,17.47427
Bag,48.16898,22.34253
Bag,47.63333,19.48333
Bagamér,47.44882,21.989
Baglad,46.68048,16.48537
Bagod,46.87669,16.74823
Bágyogszovát,47.5844,17.36387
Baj,47.64593,18.3641
Baja,46.18299,18.95307
Bajánsenye,46.80183,16.38411
Bajna,47.654,18.5972
Bajót,47.72783,18.55586
Bak,46.73001,16.8456
Bakháza,46.10637,17.35908
Bakóca,46.20694,18.00067
Bakonszeg,47.18333,21.45
Bakonya,46.08523,18.08309
Bakonybánk,47.4671,17.90407
Bakonybél,47.25543,17.72805
Bakonycsernye,47.32395,18.07509
Bakonygyirót,47.41924,17.80418
Bakonyjákó,47.22425,17.60241
Bakonykoppány,47.3303,17.68672
Bakonykúti,47.24572,18.1954
Bakonynána,47.279,17.97089
Bakonyoszlop,47.34324,17.92728
Bakonypéterd,47.46677,17.797
Bakonypölöske,47.21025,17.48824
Bakonyság,47.40048,17.65131
Bakonysárkány,47.44786,18.10225
Bakonyszentiván,47.38977,17.67059
Bakonyszentkirály,47.37009,17.88066
Bakonyszentlászló,47.38901,17.80321
Bakonyszombathely,47.4717,17.96517
Bakonyszücs,47.34297,17.68066
Bakonytamási,47.41238,17.73398
Baks,46.54297,20.10213
Baksa,48.3,21.61667
Baksa,45.95361,18.08889
Baktakék,48.38333,21.03333
Baktalórántháza,48,22.08333
Baktüttös,46.70005,16.81793
Balajt,48.32088,20.78785
Balassagyarmat,48.07296,19.29614
Balástya,46.42277,20.00816
Balaton,48.09279,20.30617
Balaton,46.83333,17.75
Balatonakali,46.88186,17.75317
Balatonakarattya,47.01945,18.15649
Balatonalmádi,47.03526,18.02076
Balatonberény,46.70701,17.32013
Balatonboglár,46.77525,17.64415
Balatoncsicsó,46.92721,17.66879
Balatonederics,46.80949,17.38127
Balatonendréd,46.83861,17.98176
Balatonfenyves,46.71542,17.49223
Balatonfőkajár,47.02084,18.2126
Balatonföldvár,46.85255,17.88123
Balatonfüred,46.96188,17.87187
Balatonfűzfő,47.06667,18.05
Balatongyörök,46.75833,17.35462
Balatonhenye,46.91245,17.61474
Balatonkenese,47.04019,18.10671
Balatonkeresztúr,46.69743,17.37076
Balatonlelle,46.78318,17.69498
Balatonmagyaród,46.59593,17.17573
Balatonmáriafürdő,46.70559,17.37072
Balatonőszöd,46.80619,17.80033
Balatonrendes,46.82698,17.5835
Balatonszabadi,46.89397,18.13737
Balatonszárszó,46.82946,17.82426
Balatonszemes,46.80972,17.78048
Balatonszentgyörgy,46.68762,17.30239
Balatonszepezd,46.85627,17.66667
Balatonszőlős,46.96565,17.8261
Balatonudvari,46.90421,17.80347
Balatonújlak,46.67385,17.38548
Balatonvilágos,46.96268,18.16043
Balinka,47.31345,18.18954
Balkány,47.77066,21.86314
Ballószög,46.86216,19.57092
Balmazújváros,47.61667,21.35
Balogunyom,47.15884,16.64892
Balotaszállás,46.35102,19.54027
Balsa,48.18333,21.55
Bálványos,48.2,21.66667
Bálványos,46.78066,17.9512
Bana,47.65171,17.92181
Bánd,47.12213,17.7812
Bánfa,45.9945,17.87925
Bánhorváti,48.23333,20.51667
Bánk,47.46667,21.73333
Bánk,47.92503,19.17356
Bánokszentgyörgy,46.54823,16.78442
Bánréve,48.3,20.36667
Bár,46.05313,18.71644
Barabás,48.23333,22.43333
Baracs,46.98333,19.41667
Baracs,46.88202,18.90658
Baracska,47.28225,18.75853
Báránd,47.3,21.23333
Baranyahídvég,45.84639,18.02333
Baranyajenő,46.27275,18.04486
Baranyaszentgyörgy,46.24451,18.01393
Barbacs,47.64525,17.29756
Barcs,45.96,17.45861
Bárdudvarnok,46.3264,17.68614
Barlahida,46.71675,16.70114
Bárna,48.05442,19.9541
Bárna,48.10038,19.93552
Barnag,46.97932,17.74775
Bársonyos,48.46667,21.2
Bársonyos,47.51024,17.91859
Basal,46.07343,17.78391
Baskó,48.33333,21.33333
Báta,46.31332,18.7454
Báta,46.12864,18.77027
Bátaapáti,46.22199,18.6007
Bátaszék,46.19373,18.72307
Baté,46.35937,17.96399
Bátmonostor,46.10216,18.9285
Bátonyterenye,47.96962,19.84076
Bátor,47.98333,20.26667
Bátorliget,47.76218,22.27255
Battonya,46.28333,21.01667
Battonya,46.28333,21.01667
Bátya,46.488,18.95419
Batyk,46.99271,17.04042
Bázakerettye,46.52333,16.72944
Bazsi,46.93474,17.24357
Béb,47.34477,17.59905
Becsehely,46.44755,16.7771
Becske,47.92328,19.34997
Becske,47.90924,19.37629
Becskeháza,48.5295,20.83548
Becsvölgye,46.76215,16.68694
Bedegkér,46.6491,18.06016
Bedő,47.16667,21.75
Bejcgyertyános,47.15131,16.92278
Békás,47.25,20.76667
Békás,46.76667,21.13333
Békás,47.33333,19.95
Békás,47.33285,17.35183
Bekecs,48.15,21.18333
Békés,46.76667,21.13333
Békéscsaba,46.68333,21.1
Békéssámson,46.41667,20.63333
Békésszentandrás,46.86667,20.48333
Bekölce,48.08333,20.28333
Bélapátfalva,48.05,20.36667
Bélavár,46.12219,17.2165
Belecska,46.64272,18.41468
Beled,47.46594,17.09294
Beleg,46.31827,17.41022
Belezna,46.32778,16.94
Bélmegyer,46.86667,21.18333
Beloiannisz,47.1824,18.82384
Belsősárd,46.64344,16.47166
Belvárdgyula,45.97298,18.43294
Benk,48.29928,22.24329
Bénye,47.3539,19.54324
Bér,47.86572,19.50219
Bérbaltavár,47.00729,16.96198
Bercel,47.87057,19.40715
Beregdaróc,48.2,22.53333
Beregsurány,48.1662,22.552
Berekböszörmény,47.06667,21.68333
Berekfürdő,47.38333,20.85
Beremend,45.79108,18.43263
Berente,48.23333,20.66667
Beret,48.35,21.03333
Berettyóújfalu,47.22362,21.53656
Berhida,47.11131,18.12948
Berkenye,47.88884,19.07356
Berkesd,46.07565,18.40883
Berkesz,48.09707,21.97912
Bernecebaráti,48.03426,18.91432
Berzék,48.01667,20.95
Berzence,46.20907,17.1481
Besence,45.8956,17.96635
Besenyőd,47.9688,22.01649
Besenyőtelek,47.7,20.43333
Besenyszög,47.3,20.26667
Besnyő,47.18873,18.79302
Besnyő,47.14772,19.9118
Beszterec,48.17092,21.83309
Beszterec,48.16409,21.84003
Bezedek,45.86472,18.58639
Bezenye,47.96046,17.21545
Bezeréd,46.8707,17.01558
Bezi,47.67373,17.39123
Biatorbágy,47.4706,18.81892
Bicsérd,46.02295,18.08132
Bicske,47.48419,18.64404
Bihardancsháza,47.23333,21.31667
Biharkeresztes,47.13333,21.71667
Biharnagybajom,47.21667,21.23333
Bihartorda,47.21667,21.36667
Biharugra,46.96667,21.6
Bikács,46.67745,18.66723
Bikal,46.33109,18.28296
Biri,47.81667,21.85
Birján,45.99789,18.37502
Bisse,45.9093,18.25948
Boba,47.18279,17.18737
Bocfölde,46.78333,16.83333
Boconád,47.63333,20.2
Bócsa,46.60971,19.48437
Bocska,46.55374,16.91158
Bocskaikert,47.64366,21.6601
Boda,46.08061,18.04901
Bodajk,47.32352,18.23312
Bodmér,47.45,18.53502
Bodolyabér,46.2014,18.11114
Bodonhely,47.56365,17.40786
Bodony,47.94343,20.02315
Bodorfa,47.07605,17.34206
Bodorfa,46.01209,17.85589
Bodrog,48.11667,21.41667
Bodrog,46.49437,17.65039
Bodroghalom,48.3,21.71667
Bodrogkeresztúr,48.16667,21.36667
Bodrogkisfalud,48.18333,21.36667
Bodrogolaszi,48.28333,21.51667
Bódvalenke,48.54237,20.80439
Bódvarákó,48.51667,20.75
Bódvaszilas,48.53333,20.73333
Bogács,47.9,20.53333
Bogád,46.08732,18.32306
Bogádmindszent,45.90694,18.04056
Bogdása,45.8756,17.79027
Bogyiszló,46.38638,18.82962
Bogyoszló,47.56119,17.18443
Bojt,47.2,21.73333
Bókaháza,46.77387,17.1054
Bokod,47.49186,18.24743
Bokod,46.7,18.18333
Bokor,47.93295,19.54029
Boldog,47.60285,19.68839
Boldogasszonyfa,46.18358,17.8379
Boldogkőújfalu,48.31853,21.24142
Boldogkőváralja,48.33333,21.23333
Boldva,48.21667,20.8
Bolhás,46.26477,17.27088
Bolhó,46.03859,17.29732
Bóly,45.96722,18.51833
Boncodfölde,46.86903,16.73744
Bonyhád,46.29921,18.53024
Bonyhád,46.32145,18.55193
Bonyhádvarasd,46.36885,18.48021
Bonnya,46.5963,17.90277
Bordány,46.31843,19.92306
Borgáta,47.16154,17.08028
Borjád,46.5567,18.58965
Borjád,46.50429,18.08985
Borjád,45.93389,18.46722
Borota,46.26604,19.22278
Borsfa,46.51796,16.77882
Borsodbóta,48.21667,20.4
Borsodgeszt,47.95,20.7
Borsodivánka,47.7,20.66667
Borsodnádasd,48.11667,20.25
Borsodszentgyörgy,48.18333,20.2
Borsodszirák,48.26667,20.76667
Borsosberény,47.97427,19.11682
Borszörcsök,47.13464,17.40665
Borzavár,47.29064,17.82909
Bosta,45.95036,18.21076
Botpalád,48.02866,22.80668
Botykapeterd,46.05049,17.86659
Bozzai,47.20731,16.76536
Bozsok,46.83333,16.88333
Bozsok,47.32442,16.49035
Bózsva,48.45,21.65
Bózsva,48.46667,21.46667
Bő,47.36783,16.8149
Bőcs,48.05,20.96667
Böde,46.83823,16.71902
Bödeháza,46.64158,16.40137
Bögöt,47.25273,16.82886
Bögöte,47.1,16.88333
Bögöte,47.08279,17.04542
Böhönye,46.41345,17.38037
Böhönye,46.41568,17.37261
Bököny,47.73333,21.75
Bölcske,46.74102,18.96736
Bőny,47.65,17.86977
Börcs,47.68534,17.49991
Börzönce,46.5798,16.89001
Bősárkány,47.68821,17.25
Bőszénfa,46.24171,17.8499
Bucsa,47.2,21
Bucsu,47.26528,16.49354
Búcsúszentlászló,46.78842,16.93081
Bucsuta,46.56602,16.83615
Budajenő,47.55689,18.80214
Budakalász,47.61667,19.05
Budakeszi,47.51083,18.92717
Budaörs,47.46181,18.95845
Budapest,47.49835,19.04045
Bugac,46.66667,19.66667
Bugac,46.68704,19.68074
Bugacpusztaháza,46.69902,19.63154
Bugyi,47.22748,19.14664
Buj,48.1,21.65
Buják,47.88352,19.54381
Buzsák,46.64843,17.57747
Bük,47.38486,16.75065
Bük,47.4,16.76667
Bükkábrány,47.88333,20.68333
Bükkaranyos,47.98333,20.78333
Bükkmogyorósd,48.12913,20.35555
Bükkösd,46.10751,17.9882
Bükkösd,46.28216,17.00177
Bükkszék,47.98333,20.18333
Bükkszenterzsébet,48.05456,20.16326
Bükkszentkereszt,48.06667,20.63333
Bükkszentmárton,48.07152,20.33097
Bükkzsérc,47.96667,20.5
Bürüs,45.96549,17.76012
Büssü,46.46111,17.96447
Büttös,48.48333,21.01667
Cák,47.35376,16.51446
Cakóháza,47.69659,17.28735
Cece,46.77056,18.62826
Cégénydányád,47.93367,22.54627
Cegléd,47.17266,19.79952
Ceglédbercel,47.2237,19.66828
Celldömölk,47.25713,17.15027
Cered,48.14667,19.96619
Chernelházadamonya,47.36167,16.84313
Cibakháza,46.95976,20.19753
Cigánd,48.25561,21.89195
Cikó,46.25881,18.562
Cirák,47.47824,17.02883
Cún,45.8125,18.06694
Csabacsűd,46.83333,20.65
Csabaszabadi,46.57457,20.95141
Csabdi,47.51955,18.61238
Csabrendek,47.01356,17.29108
Csáfordjánosfa,47.41598,16.95006
Csaholc,47.98383,22.73223
Csajág,47.04176,18.17841
Csákány,46.53872,17.27234
Csákánydoroszló,46.9764,16.48453
Csákberény,47.34638,18.3288
Csákvár,47.39184,18.46501
Csanádalberti,46.33333,20.71667
Csanádapáca,46.55,20.88333
Csanádpalota,46.25,20.73333
Csánig,47.43169,17.0242
Csány,47.64829,19.82972
Csányoszró,45.88141,17.91096
Csanytelek,46.59501,20.12342
Csapi,46.53238,17.08607
Csapod,47.51913,16.92772
Csárdaszállás,46.86667,20.93333
Csarnóta,45.89509,18.21644
Csaroda,48.15827,22.45951
Császár,47.498,18.14272
Császártöltés,46.42194,19.18361
Császló,47.91426,22.72332
Csátalja,46.03666,18.94686
Csatár,46.77661,16.86378
Csataszög,47.28359,20.38441
Csatka,47.37859,17.9781
Csávoly,46.18917,19.14667
Csebény,46.18991,17.9324
Csécse,47.86667,19.63333
Csegöld,47.90214,22.67573
Csehbánya,47.18205,17.68365
Csehi,47.03377,16.94596
Csehimindszent,47.04793,16.95491
Csém,47.68122,18.08719
Csemő,47.11799,19.69092
Csempeszkopács,47.15548,16.80529
Csengele,46.54234,19.86358
Csenger,47.83582,22.68096
Csengersima,47.86777,22.72629
Csengerújfalu,47.80594,22.62688
Csengőd,46.71543,19.26802
Csénye,47.2367,16.87221
Csenyéte,48.43333,21.05
Csép,47.57809,18.06356
Csépa,46.80555,20.13268
Csepreg,47.40098,16.70881
Csér,47.41749,16.93406
Cserdi,46.08308,17.99043
Cserénfa,46.30727,17.87882
Cserépfalu,47.93333,20.53333
Cserépváralja,47.93333,20.56667
Cserháthaláp,47.9823,19.37547
Cserhátsurány,47.97915,19.42772
Cserhátszentiván,47.93942,19.58286
Cserkeszőlő,46.8632,20.18701
Cserkút,46.07572,18.13499
Csernely,48.2,20.45
Csernely,48.15,20.35
Cserszegtomaj,46.80165,17.22096
Csertalakos,46.64231,16.69882
Csertő,46.09475,17.8061
Csertő,46.10982,17.79621
Csesznek,47.35664,17.88515
Csesztreg,46.71514,16.51529
Csesztve,48.01488,19.27933
Csetény,47.31806,17.99208
Csévharaszt,47.3,19.43333
Csibrák,46.46667,18.35
Csibrák,46.44421,18.33933
Csikéria,46.12851,19.4713
Csikóstőttős,46.3404,18.15769
Csikvánd,47.46667,17.45171
Csincse,47.887,20.76811
Csincse,47.71667,20.81667
Csipkerek,47.06667,16.95
Csitár,48.0539,19.43067
Csobád,48.28333,21.03333
Csobaj,48.05,21.35
Csobánka,47.25,20.5
Csobánka,47.64637,18.96189
Csókakő,47.35182,18.2702
Csókakő,46.28358,17.68028
Csokonyavisonta,46.07705,17.44372
Csokvaomány,48.16667,20.38333
Csolnok,47.69116,18.71611
Csólyospálos,46.41842,19.83954
Csoma,47.01667,21.5
Csoma,46.37294,18.05182
Csomád,47.65962,19.22913
Csombárd,46.45217,17.67124
Csongrád,46.71332,20.14241
Csongrád,47.15,18.7
Csonkahegyhát,46.80067,16.72001
Csonkamindszent,46.05305,17.96576
Csopak,46.97709,17.91819
Csór,47.20567,18.25671
Csorna,46.55513,19.1499
Csorna,47.61155,17.25012
Csorvás,46.63333,20.83333
Csót,47.36096,17.6087
Csöde,46.81674,16.53194
Csögle,47.21645,17.25663
Csökmő,47.03333,21.3
Csököly,46.29901,17.55373
Csömend,46.56956,17.49423
Csömödér,46.61006,16.63806
Csömör,47.55,19.23333
Csönge,47.35,17.06667
Csörnyeföld,46.50002,16.63335
Csörög,47.73667,19.194
Csörötnek,46.95056,16.36405
Csősz,47.03762,18.41495
Csővár,47.81315,19.32358
Csurgó,47.01667,21.18333
Csurgó,47.25,21.45
Csurgó,46.35,18.7
Csurgó,46.25314,17.1006
Csurgónagymarton,46.29425,17.08188
Dabas,47.18594,19.31091
Dabronc,47.03072,17.16798
Dabrony,47.24342,17.32794
Dad,47.51913,18.22627
Dág,47.66257,18.72049
Dáka,47.28774,17.42802
Dalmand,46.49626,18.18321
Damak,48.31667,20.83333
Dámóc,48.37519,22.03385
Dánszentmiklós,47.21486,19.54695
Dány,47.52,19.544
Daraboshegy,46.95934,16.56915
Darány,45.98213,17.59011
Darnó,47.95846,22.65926
Darnó,47.95,20.16667
Darnó,47.95,20.16667
Darnózseli,47.84939,17.42371
Daruszentmiklós,46.87207,18.85728
Darvas,48.36872,22.06276
Darvas,47.1,21.35
Dávod,45.995,18.91722
Debercsény,47.95987,19.31756
Debrecen,47.53167,21.62444
Debréte,48.5,20.86667
Decs,46.28428,18.76
Dédestapolcsány,48.18333,20.48333
Dég,46.86807,18.45042
Dejtár,48.03714,19.1646
Délegyháza,47.24135,19.09019
Demecser,48.11648,21.92624
Demjén,47.83333,20.33333
Dencsháza,45.993,17.83591
Dénesfa,47.45786,17.03059
Derecske,47.35,21.56667
Derecske,47.01667,21.18333
Derekegyház,46.57863,20.35378
Deszk,46.21802,20.24322
Detek,48.33333,21.03333
Detk,47.75,20.1
Dévaványa,47.03333,20.96667
Devecser,47.10316,17.43802
Dinnyeberki,46.09769,17.9566
Diósberény,46.53314,18.44343
Diósd,47.4095,18.94898
Diósjenő,47.93968,19.04317
Dióskál,46.67365,17.05572
Diósviszló,45.8777,18.16598
Doba,47.16548,17.37904
Doboz,46.73333,21.25
Doboz,47.42452,18.63769
Dobri,46.51621,16.58214
Dobronhegy,46.81581,16.75274
Dóc,46.43777,20.1375
Domaháza,48.18333,20.11667
Domaszék,46.24917,20.01111
Domaszék,46.28333,19.95
Dombegyház,46.33333,21.13333
Dombiratos,46.41667,21.11667
Dombóvár,46.37657,18.13696
Dombrád,48.23333,21.93333
Domony,47.65552,19.43229
Domoszló,47.83333,20.11667
Dormánd,47.71667,20.41667
Dorog,47.72095,18.73641
Dorogháza,47.98733,19.90152
Dozmat,47.23377,16.51198
Döbörhegy,46.99151,16.70382
Döbröce,46.93589,17.18779
Döbrököz,46.42178,18.23953
Döbrönte,47.22919,17.54651
Döge,48.26246,22.06339
Dömös,47.76163,18.9131
Dömsöd,47.09005,19.01106
Dör,47.59878,17.29976
Dörgicse,46.91477,17.72393
Döröske,47.01329,16.69804
Dötk,46.94359,17.00741
Dövény,48.35,20.55
Drágszél,46.4675,19.03972
Drávacsehi,45.81278,18.16722
Drávacsepely,45.82917,18.13861
Drávafok,45.88467,17.76401
Drávagárdony,45.94678,17.604
Drávaiványi,45.84656,17.81699
Drávakeresztúr,45.8392,17.75865
Drávapalkonya,45.80306,18.17889
Drávapiski,45.84,18.10111
Drávaszabolcs,45.80679,18.21045
Drávaszerdahely,45.83692,18.16108
Drávasztára,45.82751,17.82064
Drávatamási,45.94273,17.57223
Drégelypalánk,48.04721,19.05186
Dubicsány,48.28333,20.5
Dudar,47.31049,17.94445
Duka,47.1228,17.11274
Dunaalmás,47.72868,18.32235
Dunabogdány,47.79052,19.04125
Dunaegyháza,46.83809,18.95428
Dunafalva,46.07473,18.78142
Dunaföldvár,46.80713,18.92763
Dunaharaszti,47.3545,19.09822
Dunakeszi,47.63641,19.13864
Dunakiliti,47.96545,17.28662
Dunapataj,46.644,18.99632
Dunaremete,47.877,17.43613
Dunaszeg,47.77037,17.53847
Dunaszekcső,46.0874,18.7587
Dunaszentbenedek,46.59326,18.89447
Dunaszentgyörgy,46.52852,18.81771
Dunaszentmiklós,47.7039,18.38181
Dunaszentpál,47.77858,17.50828
Dunasziget,47.94027,17.35266
Dunasziget,47.23333,19.01667
Dunatetétlen,46.75749,19.09534
Dunaújváros,46.96479,18.93974
Dunavarsány,47.27859,19.06617
Dunavecse,46.91478,18.97127
Dusnok,46.58758,16.95139
Dusnok,46.39085,18.96296
Dúzs,46.48902,18.37987
Ebergőc,47.56362,16.81131
Ebes,47.46667,21.5
Ebes,46.30966,18.70911
Écs,47.56089,17.7067
Ecséd,47.73267,19.76696
Ecseg,47.8981,19.60609
Ecsegfalva,47.15,20.91667
Ecseny,46.551,17.8531
Ecser,47.44389,19.3245
Edde,46.52405,17.71654
Edelény,48.3,20.73333
Edve,47.45512,17.13567
Eger,47.90265,20.37329
Egerág,45.98389,18.30472
Egeralja,47.23333,17.25
Egeraracsa,46.67366,17.07844
Egerbakta,47.93333,20.3
Egerbocs,48.03333,20.26667
Egercsehi,48.05,20.28333
Egerfarmos,47.71667,20.55
Egerlövő,47.71667,20.63333
Egerszalók,47.86667,20.33333
Egerszólát,47.88333,20.26667
Égerszög,48.45,20.58333
Egervár,46.93575,16.85326
Egervölgy,47.11896,16.90838
Egyed,47.52069,17.33867
Egyek,47.63333,20.9
Egyházasdengeleg,47.80029,19.5503
Egyházasfalu,47.46593,16.7647
Egyházasgerge,48.17962,19.64572
Egyházasharaszti,45.8104,18.33418
Egyházashetye,47.16847,17.11945
Egyházashollós,47.0584,16.68911
Egyházaskesző,47.41606,17.3287
Egyházaskozár,46.33178,18.31771
Egyházasrádóc,47.08911,16.61743
Elek,46.53333,21.25
Ellend,46.05966,18.37541
Előszállás,46.83094,18.83481
Emőd,47.93333,20.81667
Encs,48.33333,21.13333
Encsencs,47.73333,22.11667
Endrefalva,48.12705,19.57715
Endrőc,45.93009,17.76054
Enese,47.64635,17.42334
Enying,46.93046,18.24202
Eperjes,46.68333,20.56667
Eperjes,47.46667,21.1
Eperjes,47.45815,18.38655
Eperjes,48.21971,21.03984
Eperjeske,48.34507,22.21554
Eplény,47.20674,17.91973
Epöl,47.64616,18.63623
Ercsi,47.25194,18.89623
Érd,47.39489,18.91361
Erdőbénye,48.26667,21.36667
Erdőhorváti,48.31667,21.43333
Erdőkertes,47.67261,19.30786
Erdőkövesd,48.03333,20.1
Erdőkürt,47.77343,19.46086
Erdősmárok,46.05667,18.54509
Erdősmecske,46.17727,18.51136
Erdőtarcsa,47.76373,19.53947
Erdőtelek,47.68333,20.31667
Erdőtelek,46.3,18.48333
Erk,47.61667,20.08333
Érpatak,47.8,21.76667
Érsekcsanád,46.25352,18.98457
Érsekhalma,46.34882,19.12153
Érsekvadkert,47.99619,19.20231
Értény,46.61135,18.13334
Erzsébet,46.41667,20.5
Erzsébet,46.10038,18.45669
Erzsébet,46.66667,17.96667
Esztár,47.28333,21.78333
Eszteregnye,46.474,16.88349
Esztergályhorváti,46.70072,17.10894
Esztergom,47.7928,18.74148
Esztergom,47.75736,18.73008
Ete,47.53076,18.07526
Etes,48.11105,19.71924
Etyek,47.44794,18.75328
Fábiánháza,47.84759,22.35346
Fábiánsebestyén,46.68333,20.46667
Fácánkert,48.15,22.3
Fácánkert,47.56446,18.34261
Fácánkert,46.44649,18.73574
Fadd,46.46476,18.81925
Fáj,48.41667,21.08333
Fajsz,46.41695,18.91943
Fancsal,48.35,21.06667
Farád,47.60633,17.20024
Farkasgyepű,47.2,17.63333
Farkaslyuk,48.18333,20.31667
Farmos,47.36067,19.84619
Fazekasboda,46.12453,18.48415
Fedémes,48.03333,20.2
Fegyvernek,47.26667,20.53333
Fehérgyarmat,47.98333,22.51667
Fehértó,47.16667,20.7
Fehértó,46.64404,20.00078
Fehértó,46.37841,20.05354
Fehértó,47.67603,17.34659
Fehérvárcsurgó,47.29349,18.2646
Feked,46.45,19.03333
Feked,46.16191,18.55877
Feketeerdő,47.9365,17.27919
Felcsút,47.45797,18.58626
Feldebrő,47.81667,20.25
Felgyő,46.64741,20.1053
Felpéc,47.52345,17.59715
Felsőberecki,48.36667,21.7
Felsőcsatár,47.21327,16.44344
Felsődobsza,48.25653,21.07522
Felsőegerszeg,46.25437,18.13407
Felsőgagy,48.43333,21.01667
Felsőjánosfa,46.84633,16.55481
Felsőkelecsény,48.36667,20.6
Felsőlajos,47.0672,19.49713
Felsőmarác,46.93388,16.51988
Felsőmocsolád,46.58193,17.82525
Felsőnána,46.46681,18.52913
Felsőnyárád,48.33333,20.6
Felsőnyék,46.79601,18.29739
Felsőörs,47.01474,17.95332
Felsőpáhok,46.78424,17.15817
Felsőpakony,47.34329,19.23698
Felsőpetény,47.89115,19.19687
Felsőrajk,46.68104,16.987
Felsőregmec,48.49147,21.60579
Felsőszenterzsébet,46.75285,16.45499
Felsőszentiván,47.15419,19.05252
Felsőszentiván,47.05685,18.49325
Felsőszentiván,46.19713,19.18686
Felsőszentmárton,45.85222,17.7
Felsőszölnök,46.87615,16.16501
Felsőtárkány,47.96667,20.41667
Felsőtelekes,48.4,20.63333
Felsőtold,47.97154,19.61047
Felsővadász,48.36667,20.93333
Felsőzsolca,48.1,20.86667
Fényeslitke,48.27133,22.10009
Fenyőfő,47.35032,17.76527
Ferencszállás,46.21667,20.35
Fertőboz,47.63638,16.70085
Fertőd,47.62173,16.87088
Fertőendréd,47.6056,16.90899
Fertőhomok,47.62093,16.76862
Fertőrákos,47.72017,16.6504
Fertőszentmiklós,47.58996,16.87517
Fertőszéplak,47.61533,16.83528
Fiad,46.63178,17.84235
Filkeháza,48.49608,21.48845
Fityeház,46.3768,16.9054
Foktő,46.52752,18.91933
Folyás,47.8,21.13333
Fonó,46.40011,17.95288
Fony,48.4,21.3
Fonyód,46.75552,17.57945
Forráskút,46.36528,19.90973
Forró,48.31667,21.08333
Fót,47.6177,19.1887
Földeák,46.31667,20.5
Földes,47.3,21.36667
Főnyed,46.63069,17.25718
Fulókércs,48.43333,21.11667
Furta,47.13333,21.46667
Füle,47.05332,18.24839
Fülesd,48.02507,22.67522
Fülöp,47.61878,22.0835
Fülöpháza,46.88333,19.41667
Fülöpjakab,46.74221,19.72132
Fülöpszállás,46.82075,19.23748
Fülpösdaróc,47.9361,22.4799
Fürged,46.72358,18.31126
Füzér,48.55,21.46667
Füzérkajata,48.51667,21.5
Füzérkomlós,48.51231,21.45284
Füzérradvány,48.48333,21.53333
Füzesabony,47.75,20.41667
Füzesgyarmat,47.1,21.21667
Fűzvölgy,46.52315,16.94065
Gáborján,47.23333,21.66667
Gáborjánháza,46.63176,16.42005
Gacsály,47.92943,22.75786
Gadács,46.53971,18.00505
Gadány,46.51526,17.39155
Gadna,48.4,20.93333
Gádoros,46.66667,20.6
Gagyapáti,48.40909,21.00184
Gagybátor,48.43333,20.95
Gagyvendégi,48.43333,20.98333
Galambok,46.5219,17.12633
Galgaguta,47.85095,19.38763
Galgagyörk,47.74256,19.37648
Galgahévíz,47.61667,19.56667
Galgamácsa,47.69562,19.38724
Gálosfa,46.25631,17.88568
Galvács,48.41667,20.78333
Gamás,46.62138,17.76212
Ganna,47.23279,17.52995
Gánt,47.39109,18.38871
Gara,46.03194,19.04278
Garáb,47.97781,19.64077
Garabonc,46.58714,17.12264
Garadna,48.1,20.61667
Garadna,48.41667,21.18333
Garadna,48.1,20.58333
Garbolc,47.94453,22.86349
Gárdony,47.20942,18.63607
Garé,45.91738,18.19278
Gasztony,46.96245,16.45093
Gátér,47.03333,19.78333
Gátér,46.67899,19.96102
Gávavencsellő,48.16672,21.57371
Géberjén,47.93703,22.46124
Gecse,47.4461,17.53163
Géderlak,46.60685,18.91445
Gégény,48.15,21.95
Gelej,47.83333,20.78333
Gelénes,48.2,22.45175
Gellénháza,46.76462,16.78502
Gelse,46.6,17
Gelsesziget,46.56643,16.98874
Gemzse,48.14128,22.1947
Gencsapáti,47.28496,16.59575
Gérce,47.21427,17.0183
Gerde,45.98972,18.02417
Gerendás,46.6,20.86667
Gerendás,47.43333,19.45
Gerényes,46.306,18.18208
Geresdlak,46.10835,18.52364
Gerjen,46.49296,18.90381
Gersekarát,46.97836,16.74274
Geszt,46.88333,21.58333
Gesztely,48.1,20.96667
Geszteréd,47.76667,21.78333
Gétye,46.76277,17.06787
Gibárt,48.31533,21.16044
Gic,47.43341,17.75245
Gige,46.30233,17.60853
Gilvánfa,45.91871,17.9627
Girincs,47.96667,20.98333
Gógánfa,47.02133,17.18759
Golop,48.23333,21.2
Gomba,47.37095,19.53057
Gombosszeg,46.75538,16.71997
Gór,47.35925,16.80262
Gordisa,45.79639,18.23333
Gosztola,46.58843,16.51373
Gosztola,46.58637,16.5316
Göd,47.68324,19.13417
Gödöllő,47.59657,19.35515
Gödre,46.28612,17.97288
Gölle,46.43911,18.01131
Gömörszőlős,48.38333,20.43333
Gönc,48.46667,21.28333
Göncruszka,48.45,21.25
Gönyű,47.73333,17.83333
Görbeháza,47.83333,21.23333
Görcsöny,45.96944,18.13583
Görcsönydoboka,46.07095,18.62696
Görgeteg,46.14162,17.43496
Gősfa,46.96046,16.85982
Grábóc,46.28674,18.61108
Gulács,48.08718,22.47491
Gulács,46.82888,17.50132
Gutorfölde,46.63754,16.7353
Gyál,47.38449,19.2214
Gyalóka,47.4437,16.69501
Gyanógeregye,47.12278,16.76481
Gyarmat,47.46119,17.49732
Gyékényes,47.57038,19.73932
Gyékényes,46.3,19.33333
Gyékényes,46.23623,17.01027
Gyenesdiás,46.77058,17.2866
Gyepükaján,47.04258,17.32864
Gyermely,47.59255,18.64451
Gyód,45.99583,18.17861
Gyomaendrőd,46.93333,20.83333
Gyóró,47.49123,17.02324
Gyömöre,47.49773,17.56585
Gyömrő,47.42733,19.40133
Gyöngyfa,45.96023,17.95129
Gyöngyös,47.61295,20.04695
Gyöngyös,45.93333,17.81667
Gyöngyös,47.78257,19.928
Gyöngyösfalu,47.31252,16.58748
Gyöngyöshalász,47.74161,19.92876
Gyöngyösmellék,45.98752,17.70129
Gyöngyösoroszi,47.82734,19.89172
Gyöngyöspata,47.81505,19.78925
Gyöngyössolymos,47.81724,19.93619
Gyöngyöstarján,47.81369,19.86724
Gyönk,46.55603,18.47694
Gyönk,46.58272,18.45935
Győr,47.68333,17.63512
Győrasszonyfa,47.5,17.8
Györe,46.29637,18.39876
Györgytarló,48.2,21.66667
Györköny,46.63372,18.69512
Győrladamér,47.75652,17.56216
Győröcske,48.38333,22.15
Győrság,47.58059,17.75246
Győrsövényház,47.68965,17.37361
Győrszemere,47.55256,17.56356
Győrtelek,47.93672,22.43261
Győrújbarát,47.60643,17.64875
Győrújfalu,47.72524,17.60611
Győrvár,46.98508,16.8397
Győrzámoly,47.74325,17.58104
Gyugy,46.69223,17.68309
Gyula,46.65,21.28333
Gyulaháza,48.13333,22.11667
Gyulaháza,47.18333,16.88333
Gyulaj,46.50648,18.29476
Gyulakeszi,46.86864,17.48082
Gyúró,47.37186,18.73401
Gyügye,47.92586,22.56814
Gyüre,48.17587,22.27185
Gyűrűs,46.88333,17
Hács,46.64652,17.68783
Hagyárosbörönd,46.90817,16.70381
Hahót,46.6399,16.92283
Hajdúbagos,47.39295,21.66551
Hajdúböszörmény,47.66667,21.51667
Hajdúdorog,47.81667,21.5
Hajdúhadház,47.68333,21.66667
Hajdúnánás,47.85,21.43333
Hajdúsámson,47.6,21.76667
Hajdúszoboszló,47.45,21.4
Hajdúszoboszló,47.45,21.4
Hajdúszovát,47.38333,21.48333
Hajmás,46.28017,17.91443
Hajmáskér,47.14513,18.01964
Hajós,46.39861,19.12056
Halastó,48.23333,21.23333
Halastó,47.96667,20.75
Halastó,47.76667,21.08333
Halastó,46.56667,20.36667
Halastó,48.08333,19.3
Halastó,47.56667,19.71667
Halastó,47.43333,19.63333
Halastó,46.86667,18.63333
Halastó,45.78333,18.38333
Halastó,47.63333,18.08333
Halastó,47.03333,19.78333
Halastó,46.94022,16.68235
Halastó,46.5,18.18333
Halastó,46.28333,17.83333
Halastó,45.96667,18.2
Halastó,47.2,18.28333
Halastó,46.53333,17.63333
Halastó,46.53333,17.45
Halastó,46.555,19.09833
Halászi,47.8893,17.32615
Halásztelek,46.88333,20.61667
Halásztelek,47.01667,19.03333
Halásztelek,47.36173,18.98119
Halimba,47.03312,17.5365
Halmaj,48.25,21
Halmajugra,47.76667,20.06667
Halogy,46.97226,16.5643
Hangács,46.98333,20.51667
Hangács,48.3,20.83333
Hangács,48.05,21.53333
Hangács,47.43333,21.16667
Hangács,46.9,20.2
Hangács,47.78333,19.53333
Hangony,48.28333,20.38333
Hangony,48.23333,20.2
Hantos,46.99517,18.69539
Harasztifalu,47.05142,16.5512
Harc,46.40355,18.6179
Harka,47.63333,16.6
Harkakötöny,46.46313,19.60759
Harkány,45.85002,18.23668
Háromfa,46.11035,17.32693
Háromhuta,48.38333,21.43333
Harsány,47.96667,20.75
Harsány,46.16667,19.16667
Hárskút,47.18836,17.81699
Harta,46.69758,19.0311
Hásságy,46.03466,18.38724
Hatvan,47.66667,19.68333
Hatvan,46.84818,18.50826
Hédervár,47.82931,17.45315
Hedrehely,46.19658,17.65149
Hegyesd,46.91687,17.51904
Hegyesd,47.7565,19.04829
Hegyeshalom,47.91338,17.15388
Hegyfalu,47.35429,16.88388
Hegyháthodász,46.93664,16.65651
Hegyhátmaróc,46.31124,18.33657
Hegyhátsál,46.95927,16.64178
Hegyhátszentjakab,46.86829,16.54596
Hegyhátszentmárton,46.93522,16.48048
Hegyhátszentpéter,46.98022,16.81691
Hegykő,47.61874,16.79696
Hegymagas,46.83289,17.43005
Hegymeg,48.33333,20.86667
Hegyszentmárton,45.90389,18.09
Héhalom,47.78017,19.58519
Hejce,48.43333,21.28333
Hejőbába,47.9,20.95
Hejőkeresztúr,47.96667,20.88333
Hejőkürt,47.86667,21
Hejőpapi,47.9,20.91667
Hejőszalonta,47.93333,20.88333
Helesfa,46.08978,17.97602
Helvécia,46.83661,19.62251
Hencida,47.25,21.7
Hencse,46.20097,17.62253
Herceghalom,47.5031,18.75062
Hercegkút,48.33333,21.53333
Hercegszántó,45.95,18.93917
Heréd,47.70638,19.63314
Héreg,47.64925,18.50968
Herencsény,47.97829,19.4761
Herend,47.13333,17.75
Heresznye,46.05561,17.27574
Hermánszeg,47.90564,22.62775
Hernád,48,20.93333
Hernád,47.16238,19.43295
Hernádbűd,48.3,21.13333
Hernádcéce,48.35,21.2
Hernádkak,48.08917,20.96382
Hernádkércs,48.24202,21.04975
Hernádnémeti,48.06667,20.98333
Hernádpetri,48.48333,21.16667
Hernádszentandrás,48.2904,21.08817
Hernádszurdok,48.48172,21.20709
Hernádvécse,48.45,21.16667
Hernyék,46.64952,16.64137
Hét,48.28333,20.38333
Hetefejércse,48.11995,22.4746
Hetes,46.4222,17.69324
Hetvehely,46.13312,18.04377
Hetyefő,47.0464,17.16056
Heves,47.6,20.28333
Hevesaranyos,48.01667,20.23333
Hevesvezekény,47.55,20.36667
Hévíz,46.79031,17.18408
Hévízgyörk,47.63333,19.51667
Hidas,47.91667,19.98333
Hidas,46.2568,18.4954
Hidasnémeti,48.5,21.23333
Hidegkút,48.23333,21.23333
Hidegkút,47.81667,19.8
Hidegkút,45.85,18.3
Hidegkút,47.00268,17.82959
Hidegkút,46.73333,16.85
Hidegség,47.62651,16.74147
Hidvégardó,48.56667,20.85
Himesháza,46.08823,18.56998
Himod,47.51977,17.00424
Hirics,45.82687,17.99399
Hobol,46.02386,17.77654
Hodász,47.91834,22.20153
Hódmezővásárhely,46.41667,20.33333
Hollád,46.64133,17.30957
Hollóháza,48.53932,21.41442
Hollókő,47.998,19.5941
Homokbödöge,47.30259,17.58965
Homokkomárom,46.50484,16.91574
Homokmégy,46.49002,19.07311
Homokszentgyörgy,46.11826,17.57475
Homorúd,45.98139,18.79222
Homrogd,48.28333,20.91667
Hont,48.05112,18.99193
Horpács,47.99718,19.12911
Hort,47.63333,21.28333
Hort,47.69081,19.7893
Hortobágy,47.91667,21.33333
Hortobágy,47.58333,21.08333
Hortobágy,47.58278,21.15108
Horváthertelend,46.1758,17.9255
Horvátlövő,47.18015,16.46318
Horvátzsidány,47.41135,16.62509
Hosszúhetény,46.16414,18.35077
Hosszúpályi,47.39303,21.7328
Hosszúpereszteg,47.09684,17.02332
Hosszúvíz,46.51733,17.44332
Hosszúvölgy,47.96667,20.5
Hosszúvölgy,46.35,18.7
Hosszúvölgy,46.5128,16.93089
Hosztót,47.08772,17.24072
Hottó,46.84599,16.75089
Hottó,46.91129,17.13219
Hőgyész,46.49697,18.41841
Hövej,47.5511,17.01941
Hugyag,48.08904,19.43086
Hunya,46.81667,20.85
Hunyadfalva,47.31667,20.38333
Husztót,46.16667,18.08333
Ibafa,46.1552,17.91632
Iborfia,46.73894,16.74914
Iborfia,46.72367,16.75461
Ibrány,48.12329,21.70953
Igal,46.53181,17.9386
Igal,46.00276,18.98934
Igar,47.28686,18.302
Igar,46.78137,18.51569
Igrici,47.86667,20.88333
Iharos,47.46667,18.85
Iharos,46.8,17.43333
Iharos,46.34384,17.10205
Iharos,47.45,18.85
Iharos,46.47978,18.12253
Iharosberény,46.36345,17.11227
Ikervár,47.20556,16.89225
Iklad,47.66533,19.4361
Iklanberény,47.42425,16.80367
Iklódbördőce,46.60483,16.61341
Ikrény,47.65499,17.52749
Iliny,48.03314,19.42753
Ilk,48.11667,22.23333
Illocska,45.80057,18.5232
Imola,48.42006,20.55095
Imrehegy,46.47744,19.31223
Ináncs,48.28333,21.06667
Inárcs,47.262,19.327
Inke,46.39518,17.19785
Ipacsfa,45.8345,18.20551
Ipolydamásd,47.83851,18.83005
Ipolyszög,48.05244,19.23235
Ipolytarnóc,48.23819,19.62467
Ipolytölgyes,47.92411,18.78585
Ipolyvece,48.06083,19.10723
Iregszemcse,46.69286,18.18581
Irota,48.4,20.88333
Isaszeg,47.53011,19.40205
Ispánk,46.86437,16.44329
Istenmezeje,48.07943,20.05067
Istvándi,46.01839,17.62292
Istvándi,46.05,17.58333
Iszkaszentgyörgy,47.23719,18.29475
Iszkáz,47.1634,17.29716
Isztimér,47.27884,18.1954
Ivád,48.01667,20.06667
Iván,47.44378,16.90598
Ivánbattyán,45.90722,18.41806
Ivánc,46.9439,16.50224
Iváncsa,47.1567,18.8203
Ivándárda,45.83255,18.59123
Izmény,46.31469,18.41377
Izsák,46.80454,19.35172
Izsófalva,48.3,20.66667
Jágónak,46.31419,18.09241
Ják,47.14249,16.58148
Jakabszállás,47.46667,19.5
Jakabszállás,47.02271,18.63426
Jakabszállás,46.76028,19.60722
Jákfa,47.33004,16.95013
Jákfalva,48.33333,20.58333
Jákó,46.33379,17.55253
Jánd,48.11318,22.37368
Jánkmajtis,47.94109,22.6527
Jánoshalma,46.29861,19.32583
Jánosháza,47.51667,17.7
Jánosháza,47.11937,17.16503
Jánoshida,47.38333,20.06667
Jánossomorja,47.78621,17.13603
Járdánháza,48.15,20.25
Jármi,47.96667,22.25
Jásd,47.28936,18.02273
Jászágó,47.59315,19.85591
Jászalsószentgyörgy,47.36667,20.1
Jászapáti,47.51667,20.15
Jászárokszállás,47.64238,19.98038
Jászberény,47.5,19.91667
Jászboldogháza,47.36762,19.9961
Jászdózsa,47.5661,20.01534
Jászfelsőszentgyörgy,47.50742,19.78392
Jászfényszaru,47.57019,19.724
Jászivány,47.52219,20.24463
Jászjákóhalma,47.52038,19.99086
Jászkarajenő,47.05,20.06667
Jászkisér,47.45,20.21667
Jászladány,47.36667,20.16667
Jászszentandrás,47.58333,20.18333
Jászszentlászló,46.56685,19.76065
Jásztelek,47.48286,20.00371
Jásztelek,47.94922,19.11597
Jéke,48.2433,22.15877
Jenő,47.03333,20.15
Jenő,47.1046,18.25086
Jobaháza,47.58041,17.18636
Jobbágyi,47.83238,19.67762
Jósvafő,48.48333,20.56667
Juta,46.41048,17.73754
Kaba,47.35,21.28333
Kacorlak,46.57468,16.9544
Kács,47.95742,20.61467
Kacsóta,46.03881,17.95655
Kadarkút,46.23623,17.62014
Kajárpéc,47.49065,17.63851
Kajászó,47.32416,18.7235
Kajdacs,46.56548,18.62272
Kakasd,46.34744,18.59288
Kákics,45.90443,17.85772
Kakucs,47.242,19.36467
Kál,47.73333,20.26667
Kalaznó,46.50182,18.47763
Káld,47.16372,17.04411
Kálló,47.74857,19.4861
Kallósd,46.87139,17.06401
Kállósemjén,47.86081,21.93929
Kálmáncsa,46.06983,17.61874
Kálmánháza,47.88333,21.58333
Kálócfa,46.75573,16.56431
Kalocsa,46.52981,18.97283
Káloz,46.95464,18.48259
Kám,47.10382,16.87221
Kamond,47.14613,17.20323
Kamut,46.76667,20.98333
Kánó,48.42751,20.59918
Kántorjánosi,47.93333,22.15
Kány,48.51667,21.01667
Kánya,46.70042,18.06728
Kányavár,46.56667,16.68333
Kapolcs,46.95617,17.61115
Kápolna,46.53333,20.6
Kápolna,47.76667,20.25
Kápolna,48.07197,22.00717
Kápolna,47.4,16.71667
Kápolna,45.85,17.91667
Kápolnásnyék,47.24004,18.67564
Kapoly,46.72838,17.97253
Kaposfő,46.36086,17.66215
Kaposgyarmat,46.28088,17.8805
Kaposhomok,46.36213,17.92178
Kaposhomok,46.35,18.23333
Kaposkeresztúr,46.33073,17.96679
Kaposmérő,46.36167,17.704
Kapospula,46.37653,18.09469
Kaposújlak,46.3604,17.73226
Kaposvár,46.36667,17.8
Kaposszekcső,46.32987,18.1316
Kaposszerdahely,46.31667,17.75
Káptalanfa,47.06525,17.34378
Káptalantóti,46.85,17.51386
Kapuvár,47.59224,17.02886
Kára,46.61717,18.01121
Karácsond,48.43333,20.91667
Karácsond,47.72962,20.03076
Karád,47.26667,20.45
Karád,46.69076,17.84136
Karakó,47.11667,18.13333
Karakó,47.11514,17.19946
Karakószörcsök,47.1305,17.28453
Karancsalja,48.13723,19.7519
Karancsberény,48.1839,19.7481
Karancskeszi,48.16353,19.69686
Karancslapujtő,48.15,19.73333
Karancsság,48.11743,19.65943
Kárász,46.26432,18.31202
Karcag,47.31667,20.93333
Karcag,46.53431,19.10136
Karcsa,48.36667,21.7
Karcsa,48.3113,21.80537
Karcsa,48.33333,21.81667
Kardos,46.79777,20.7179
Kardos,46.23333,20.61667
Kardoskút,46.48333,20.66667
Karmacs,46.83702,17.17369
Károlyháza,47.7,17.73333
Károlyháza,47.80324,17.34431
Karos,48.33333,21.75
Kartal,47.67133,19.542
Kásád,45.77833,18.39889
Kaskantyú,46.67203,19.38677
Kastélyosdombó,45.95455,17.61688
Kaszaper,46.46667,20.83333
Kaszó,46.34349,17.21197
Katádfa,45.99791,17.86997
Katafa,46.97962,16.63224
Kátoly,46.05959,18.45171
Katymár,47.31667,20.93333
Katymár,46.03398,19.20935
Káva,47.35542,19.58857
Káva,47.85,19.81667
Kávás,46.86385,16.70765
Kazár,48.04952,19.86143
Kazincbarcika,48.25,20.63333
Kázsmárk,48.28333,20.98333
Kazsok,46.47997,17.96358
Kecel,46.52528,19.25194
Kecskéd,47.52298,18.30939
Kecskemét,46.90618,19.69128
Kecskemét,46.90571,19.69231
Kehidakustány,46.84179,17.09281
Kék,48.11667,21.88333
Kékcse,48.24916,22.00567
Kéked,48.55,21.35
Kékesd,46.10252,18.47317
Kékkút,46.85016,17.55924
Kelebia,46.1968,19.61659
Keléd,47.07799,17.11612
Kelemér,48.35,20.43333
Kéleshalom,46.36541,19.28178
Kelevíz,46.52406,17.41878
Kemecse,48.07532,21.80625
Kemence,48.01795,18.89185
Kemendollár,46.90234,16.95018
Kemeneshőgyész,47.35426,17.2972
Kemeneskápolna,47.20744,17.1053
Kemenesmagasi,47.33078,17.20717
Kemenesmihályfa,47.28551,17.11313
Kemenespálfa,47.13748,17.17417
Kemenessömjén,47.29406,17.13077
Kemenesszentmárton,47.29552,17.16457
Kemenesszentpéter,47.42666,17.23233
Keménfa,46.83907,16.63785
Kémes,45.82417,18.10111
Kemestaródfa,46.99869,16.5279
Kemse,45.82332,17.91355
Kenderes,47.25,20.68333
Kenderes,47.74798,21.86605
Kenéz,47.20262,16.78726
Kenézlő,48.2,21.53333
Kengyel,47.08333,20.33333
Kenyeri,47.37992,17.08638
Kercaszomor,46.78899,16.35309
Kercseliget,46.32912,18.06469
Kerecsend,47.8,20.35
Kerecseny,46.62467,17.046
Kerekegyháza,46.93722,19.47806
Kerekharaszt,47.66667,19.61667
Kereki,46.86667,21.11667
Kereki,46.79457,17.91246
Kerékteleki,47.51292,17.93676
Kerepes,47.56008,19.28289
Keresztéte,48.5,20.95
Kerkabarabás,46.67995,16.55641
Kerkafalva,46.77078,16.48605
Kerkakutas,46.75997,16.50326
Kerkáskápolna,46.78425,16.42821
Kerkaszentkirály,46.5,16.58333
Kerkateskánd,46.57664,16.57197
Kérsemjén,48.02098,22.42242
Kerta,47.1635,17.27384
Kertészsziget,47.15,21.06667
Keszeg,47.83852,19.24607
Kesznyéten,47.96667,21.05
Keszőhidegkút,46.6119,18.42179
Keszthely,46.76812,17.24317
Kesztölc,47.71266,18.80177
Keszü,46.01514,18.19009
Kétbodony,47.93745,19.28547
Kétegyháza,46.53333,21.18333
Kéthely,46.64605,17.39362
Kétpó,47.08333,20.46667
Kétpó,47.06667,20.48333
Kétsoprony,46.71667,20.86667
Kétújfalu,45.96555,17.71209
Kétvölgy,46.88532,16.21074
Kéty,46.4401,18.52243
Kevermes,46.41667,21.18333
Kilimán,46.6362,16.99534
Kimle,47.81726,17.36642
Kincsesbánya,47.26444,18.2779
Királd,48.25,20.4
Királyegyháza,45.99925,17.96914
Királyhegyes,46.26667,20.61667
Királyszentistván,47.10907,18.04486
Kisapáti,46.84291,17.46848
Kisapostag,46.89733,18.93067
Kisar,48.0563,22.51544
Kisasszond,46.33225,17.63459
Kisasszond,46.32829,17.63632
Kisasszonyfa,45.94667,18.00611
Kisbabot,47.55585,17.41566
Kisbágyon,47.82438,19.58352
Kisbajcs,47.74596,17.6806
Kisbajom,46.30654,17.49376
Kisbárapáti,46.60244,17.866
Kisbárkány,48.01667,19.68333
Kisbér,47.50289,18.03665
Kisberény,46.6374,17.65921
Kisberzseny,47.10633,17.2658
Kisbeszterce,46.20544,18.03465
Kisbodak,47.89622,17.41923
Kisbucsa,47.18333,20.98333
Kisbucsa,46.81887,16.94042
Kisbudmér,45.9125,18.4475
Kiscsécs,47.96667,21.01667
Kiscsehi,46.52168,16.67524
Kiscsősz,47.19564,17.28006
Kisdér,46.38333,18.83333
Kisdér,45.94056,18.12806
Kisdobsza,46.03094,17.65396
Kisdombegyház,46.36667,21.1
Kisdorog,46.38663,18.49685
Kisecset,47.93485,19.3164
Kisfalud,48.04857,19.73114
Kisfalud,47.20324,18.49445
Kisfalud,47.52821,17.09061
Kisfüzes,47.98333,20.13333
Kisgörbő,46.93622,17.15685
Kisgyalán,46.42338,17.97518
Kisgyőr,48.01667,20.7
Kishajmás,46.19934,18.08094
Kisharsány,45.85861,18.36417
Kishartyán,48.08371,19.70601
Kisherend,45.96611,18.32972
Kishódos,47.97112,22.83651
Kishuta,48.45,21.48333
Kisigmánd,47.65396,18.09893
Kisjakabfalva,45.89755,18.43358
Kiskassa,45.95306,18.39778
Kiskinizs,48.25092,21.03461
Kiskorpád,46.34895,17.61258
Kisköre,47.5,20.5
Kiskőrös,46.62139,19.28528
Kiskunfélegyháza,46.71213,19.84458
Kiskunhalas,46.43402,19.48479
Kiskunlacháza,47.18839,19.0093
Kiskunmajsa,46.49028,19.74
Kiskutas,46.9124,16.7965
Kisláng,46.95744,18.38813
Kisléta,47.84244,22.00393
Kislippó,45.8288,18.53434
Kislőd,47.1455,17.62277
Kismányok,46.2781,18.47025
Kismarja,47.25,21.83333
Kismaros,47.83742,19.00463
Kisnamény,47.95551,22.69309
Kisnána,47.85,20.15
Kisnémedi,47.74018,19.28501
Kisnyárád,46.03571,18.56638
Kisoroszi,47.80692,19.00974
Kispalád,48.02214,22.84059
Kispáli,46.9119,16.82934
Kispirit,47.19716,17.24029
Kisrákos,46.86031,16.50035
Kisrécse,46.50129,17.06341
Kisrozvágy,48.34972,21.9381
Kissikátor,48.19491,20.12995
Kissomlyó,47.14151,17.10384
Kistamási,46.01119,17.72093
Kistapolca,45.82163,18.38299
Kistarcsa,47.54757,19.26247
Kistelek,47.68333,21.91667
Kistelek,47.64353,19.68666
Kistelek,47.47847,19.48095
Kistelek,47.33333,19.95
Kistelek,47.10867,19.75601
Kistelek,46.4,19.43333
Kistelek,46.4725,19.97972
Kistokaj,48.04038,20.83924
Kistolmács,46.48569,16.75215
Kistormás,46.50305,18.56289
Kistótfalu,45.90788,18.30805
Kisújszállás,47.21667,20.76667
Kisunyom,47.14662,16.64127
Kisvárda,48.21667,22.08333
Kisvarsány,48.15412,22.29801
Kisvásárhely,46.99485,17.19926
Kisvaszar,46.27448,18.21478
Kisvejke,46.38133,18.41424
Kiszombor,46.18333,20.43333
Kiszsidány,47.41061,16.63879
Kisszállás,46.28009,19.48954
Kisszékely,46.67925,18.5392
Kisszekeres,47.97337,22.63313
Kisszentmárton,45.82417,18.02417
Kissziget,46.62269,16.66544
Kissziget,46.13333,18.78333
Kisszőlős,46.9,17.15
Kisszőlős,47.19662,17.33224
Klárafalva,46.21667,20.33333
Kocs,47.6075,18.21517
Kocs,47.58333,18.23333
Kocsér,47.00165,19.92067
Kocsola,46.529,18.1793
Kocsord,47.93912,22.38333
Kóka,47.48552,19.57876
Kokad,47.40617,21.93452
Kolontár,47.08464,17.47635
Komádi,47,21.5
Komárom,47.74318,18.11913
Komjáti,48.55,20.76667
Komló,46.19278,18.26494
Komlódtótfalu,47.84847,22.70458
Komlósd,46.01828,17.38655
Komlóska,48.33333,21.46667
Komoró,48.30622,22.11069
Kompolt,47.74222,20.24192
Kondó,48.188,20.64388
Kondorfa,46.89781,16.39772
Kondoros,47.4,21.61667
Kondoros,46.76667,20.8
Kóny,47.63053,17.35717
Konyár,47.31667,21.66667
Kópháza,47.63662,16.6426
Koppányszántó,46.59472,18.1099
Korlát,48.38333,21.25
Korlát,47.58333,20.78333
Koroncó,47.59878,17.52651
Kórós,45.86694,18.08444
Kosd,47.80791,19.17821
Kóspallag,47.87698,18.93339
Kótaj,48.05,21.71667
Kovácshida,45.83249,18.18556
Kovácsszénája,46.17096,18.10974
Kovácsvágás,48.45,21.53333
Kozárd,47.91438,19.61924
Kozármisleny,46.02967,18.2921
Kozmadombja,46.76703,16.55086
Köblény,46.29551,18.30249
Köcsk,47.1878,17.08617
Kökény,46.00085,18.20487
Kőkút,46.50451,18.20391
Kőkút,46.48333,19.73333
Kőkút,46.19199,17.57591
Kőkút,46.95287,18.2889
Kölcse,48.05093,22.72714
Kölesd,46.50812,18.58473
Kölked,45.95028,18.70778
Kömlő,47.6,20.45
Kömlőd,47.54647,18.26024
Kömörő,48.02537,22.58842
Kömpöc,46.46352,19.86667
Körmend,47.01096,16.60596
Környe,47.54668,18.32081
Köröm,47.98333,20.95
Kőröshegy,46.8304,17.90049
Körösladány,46.96667,21.08333
Körösnagyharsány,47,21.65
Köröstarcsa,46.88333,21.03333
Kőröstetétlen,47.09686,20.01829
Körösújfalu,46.96667,21.4
Körösszakál,47.01667,21.6
Körösszegapáti,47.03333,21.63333
Kőszárhegy,47.09251,18.34565
Kőszeg,47.38922,16.541
Kőszegdoroszló,47.34485,16.54254
Kőszegpaty,47.32701,16.64891
Kőszegszerdahely,47.33996,16.51462
Kötcse,46.75282,17.86007
Kötegyán,46.73333,21.48333
Kőtelek,47.33548,20.43618
Kővágóörs,46.84492,17.59872
Kővágószőlős,46.08407,18.12673
Kővágótöttös,46.08647,18.09967
Kövegy,46.21667,20.68333
Köveskál,46.88258,17.6053
Krasznokvajda,48.46667,20.98333
Kulcs,47.05,18.91667
Kunadacs,46.95574,19.28918
Kunágota,46.43333,21.05
Kunbaja,46.08417,19.42084
Kunbaracs,46.98904,19.40306
Kuncsorba,47.13333,20.56667
Kunfehértó,46.36091,19.41454
Kunhegyes,47.36667,20.63333
Kunmadaras,47.43333,20.8
Kunpeszér,47.05887,19.27607
Kunszállás,46.76251,19.75369
Kunszentmárton,46.83916,20.28879
Kunszentmiklós,47.02699,19.12575
Kunsziget,47.74015,17.52251
Kup,47.24826,17.46376
Kupa,48.33333,20.91667
Kurd,46.44683,18.31132
Kurityán,48.31667,20.63333
Kustánszeg,46.78294,16.6788
Kutas,47.05,21.45
Kutas,46.48333,20.5
Kutas,46,18.78333
Kutas,46.33428,17.45323
Kutas,46.096,19.05171
Kutas,45.98333,18.68333
Kutasó,47.94838,19.54219
Kübekháza,46.14988,20.27655
Külsősárd,46.62811,16.48534
Külsővat,47.29498,17.22657
Küngös,47.06592,18.17295
Lábatlan,47.74735,18.49623
Lábod,46.20535,17.45419
Lácacséke,48.36667,22
Lad,46.14752,17.6481
Ladánybene,47.03419,19.45609
Ládbesenyő,48.34307,20.78656
Lajoskomárom,46.84201,18.33763
Lajosmizse,47.02133,19.56171
Lak,48.35,20.86667
Lakhegy,46.94644,16.83407
Lakitelek,46.87601,19.99504
Lakócsa,45.8966,17.69055
Lánycsók,46.00543,18.62526
Lápafő,46.51386,18.05982
Lapáncsa,45.81917,18.49778
Laskod,48.05838,22.04359
Lasztonya,46.55607,16.71628
Látrány,46.74695,17.74505
Lázi,47.46453,17.83462
Leányfalu,47.71778,19.08585
Leányvár,48.03333,20.75
Leányvár,46.38375,18.664
Leányvár,47.67775,18.77719
Leányvár,46.7419,18.87505
Lébény,47.73574,17.39076
Legénd,47.87977,19.31027
Legyesbénye,48.16667,21.15
Léh,48.29069,20.98069
Lénárddaróc,48.15,20.38333
Lendvadedes,46.58107,16.50956
Lendvajakabfa,46.67676,16.44318
Lengyel,46.37228,18.36829
Lengyeltóti,46.67013,17.64398
Lenti,46.62403,16.53863
Lepsény,46.99036,18.24357
Lesencefalu,46.84555,17.34736
Lesenceistvánd,46.8703,17.35874
Lesencetomaj,46.85949,17.36695
Létavértes,47.38333,21.9
Letenye,46.43301,16.72583
Letkés,47.8854,18.77423
Levél,47.8944,17.2039
Levelek,47.96282,21.98537
Libickozma,46.52203,17.53284
Lickóvadamos,46.74649,16.76961
Liget,47.41428,21.86293
Liget,48.51667,21.48333
Liget,46.23597,18.1921
Ligetfalva,46.82464,17.06068
Lipót,47.86192,17.46314
Lippó,45.86278,18.57
Liptód,46.04571,18.51625
Lispeszentadorján,46.53724,16.70272
Liszó,46.36635,17.00656
Litér,47.10104,18.00454
Litka,48.45,21.06667
Litke,48.21153,19.59743
Lócs,47.40404,16.81154
Lókút,47.20546,17.85622
Lónya,48.33115,22.26526
Lónya,47.76667,21.78333
Lórév,47.11378,18.90073
Lothárd,46.00158,18.35405
Lovas,46.99363,17.9574
Lovasberény,47.30997,18.55177
Lovászhetény,46.15593,18.47385
Lovászi,46.54615,16.56459
Lovászi,46.55,16.56667
Lovászpatona,47.43735,17.63101
Lőkösháza,46.43333,21.23333
Lőrinci,47.73295,19.67867
Lövő,47.50142,16.78628
Lövőpetri,48.18185,22.19724
Lucfalva,48.02991,19.6902
Ludányhalászi,48.1335,19.52202
Ludas,47.51667,20.36667
Ludas,47.73333,20.1
Ludas,46.53569,20.28351
Ludas,47.16667,20.75
Lukácsháza,47.3428,16.57384
Lulla,46.78787,18.02327
Lúzsok,45.83816,17.94377
Mád,48.19442,21.28208
Madaras,47.1,19.48333
Madaras,46.0587,19.26121
Madocsa,46.6879,18.95791
Maglóca,47.66192,17.27432
Maglód,47.44258,19.36438
Mágocs,46.34998,18.2324
Magosliget,48.05477,22.86342
Magy,47.94052,21.98313
Magyaralmás,47.29101,18.32648
Magyaratád,46.46833,17.901
Magyarbánhegyes,46.45,20.96667
Magyarbóly,45.84556,18.48726
Magyarcsanád,46.16667,20.61667
Magyardombegyház,46.38333,21.06667
Magyaregregy,46.25274,18.31191
Magyaregres,46.46064,17.77447
Magyarföld,46.77665,16.41714
Magyargéc,48.08295,19.60258
Magyargencs,47.37726,17.28855
Magyarhertelend,46.18945,18.14914
Magyarhomorog,47.01667,21.55
Magyarkeresztúr,47.52154,17.16606
Magyarkeszi,46.74783,18.23578
Magyarlak,46.95167,16.34766
Magyarlukafa,46.16895,17.75673
Magyarmecske,45.94463,17.96366
Magyarnádalja,47.00829,16.53497
Magyarnándor,47.96521,19.3378
Magyarpolány,47.1695,17.54618
Magyarsarlós,46.04201,18.35328
Magyarszecsőd,47.03453,16.64542
Magyarszék,46.19726,18.19726
Magyarszentmiklós,46.53848,16.93572
Magyarszerdahely,46.55597,16.93849
Magyarszombatfa,46.7603,16.34249
Magyartelek,45.94227,17.9847
Majosháza,47.2645,18.99832
Majs,45.90584,18.59752
Makád,47.09023,18.93007
Makkoshotyka,48.35711,21.51654
Maklár,47.8,20.41667
Makó,46.21667,20.48333
Malomsok,47.44951,17.39184
Mályi,48.01667,20.83333
Mályinka,48.15498,20.4956
Mánd,47.99796,22.60852
Mándok,48.32149,22.19107
Mánfa,46.16667,18.25
Mány,47.53352,18.65627
Maráza,46.07526,18.51334
Marcalgergelyi,47.31027,17.2706
Marcali,46.58498,17.41196
Marcaltő,47.43342,17.36813
Márfa,45.86,18.18528
Máriahalom,47.62776,18.70875
Máriakálnok,47.86107,17.32507
Máriakéménd,46.02703,18.46183
Márianosztra,47.86397,18.87245
Máriapócs,47.88303,22.02501
Markaz,47.81667,20.06667
Márkháza,48.01724,19.72648
Márkó,47.12127,17.81378
Markóc,45.86527,17.77064
Markotabödöge,47.68187,17.31009
Maróc,46.54796,16.66514
Marócsa,45.91413,17.81449
Márok,45.87424,18.50878
Márokföld,46.71649,16.44258
Márokpapi,48.14497,22.5139
Maroslele,46.26667,20.35
Mártély,46.4886,20.23202
Martfű,47.01667,20.28333
Martonfa,46.86478,16.76804
Martonfa,46.11632,18.3718
Martonvásár,47.31601,18.79045
Martonyi,48.46667,20.76667
Mátészalka,47.95528,22.32348
Mátételke,46.16167,19.28037
Mátraballa,47.98571,20.02286
Mátraderecske,47.95,20.08333
Mátramindszent,47.98563,19.94024
Mátranovák,48.03809,19.98257
Mátraszele,48.05485,19.89572
Mátraszentimre,47.90934,19.87819
Mátraszőlős,47.95867,19.68524
Mátraterenye,48.03267,19.94762
Mátraverebély,47.97421,19.78049
Mátyásdomb,46.92219,18.34781
Matty,45.79806,18.26611
Mátyus,48.28303,22.2783
Máza,46.26743,18.39725
Mecseknádasd,46.22468,18.47076
Mecsekpölöske,46.22211,18.21119
Mecsér,47.79561,17.47542
Medgyesbodzás,46.51667,20.96667
Medgyesegyháza,46.5,21.03333
Medina,46.47497,18.64336
Megyaszó,48.18333,21.05
Megyehíd,47.211,16.84093
Megyer,47.06007,17.19395
Meggyeskovácsi,47.16667,16.86667
Meggyeskovácsi,47.15,16.86187
Méhkerék,46.78333,21.45
Méhtelek,47.93333,22.85
Mekényes,46.39118,18.33342
Mélykút,46.21509,19.38102
Mencshely,46.94543,17.6996
Mende,47.43133,19.45628
Méra,48.35,21.15
Merenye,46.07029,17.69804
Mérges,47.60183,17.4433
Mérk,47.78824,22.38038
Mernye,46.50642,17.81879
Mersevát,47.28881,17.20443
Mesterháza,47.37321,16.86165
Mesteri,47.22398,17.08737
Mesterszállás,46.95,20.43333
Meszes,48.43333,20.8
Meszlen,47.33333,16.7
Mesztegnyő,46.49622,17.42415
Mezőberény,46.81667,21.03333
Mezőcsát,47.81667,20.91667
Mezőcsokonya,46.43345,17.64626
Meződ,46.29043,18.10256
Mezőfalva,46.93184,18.77177
Mezőgyán,46.86667,21.53333
Mezőhegyes,46.31667,20.81667
Mezőhék,47,20.4
Mezőkeresztes,47.83333,20.7
Mezőkomárom,46.82591,18.29347
Mezőkovácsháza,46.4,20.91667
Mezőkövesd,47.81667,20.58333
Mezőladány,48.27296,22.22242
Mezőlak,47.32968,17.37105
Mezőnagymihály,47.81667,20.73333
Mezőnyárád,47.86667,20.68333
Mezőörs,47.56892,17.88237
Mezőörs,47.58333,17.86667
Mezőpeterd,47.16667,21.61667
Mezősas,47.11667,21.56667
Mezőszemere,47.75,20.53333
Mezőszentgyörgy,46.99197,18.28205
Mezőszilas,46.81109,18.47789
Mezőtárkány,47.71667,20.48333
Mezőtúr,47,20.63333
Mezőzombor,48.15,21.26667
Miháld,46.44895,17.12141
Mihályfa,46.9799,17.18456
Mihálygerge,48.19657,19.63733
Mihályháza,46.77723,17.37269
Mihályháza,47.30795,17.33881
Mihályi,47.51384,17.09507
Mike,46.24311,17.53026
Mikebuda,47.15821,19.61609
Mikekarácsonyfa,46.66,16.7024
Mikepércs,47.45,21.63333
Miklósi,46.64662,17.99297
Mikófalva,48.05,20.31667
Mikóháza,48.46336,21.59354
Mikosszéplak,47.03279,16.97581
Milejszeg,46.78985,16.74172
Milota,48.10372,22.78438
Mindszent,46.52362,20.19038
Mindszent,47.70999,19.50306
Mindszentgodisa,46.22457,18.0623
Mindszentkálla,46.87343,17.55264
Misefa,46.80362,16.98428
Miske,46.44643,19.03308
Miskolc,48.10306,20.77806
Miszla,46.63204,18.48054
Mocsa,47.66999,18.18505
Mogyoród,47.59748,19.2407
Mogyorósbánya,47.72839,18.59739
Mogyoróska,48.38333,21.33333
Moha,47.24304,18.33494
Mohács,45.9902,18.68621
Mohora,47.99226,19.33573
Molnári,46.38517,16.83143
Molnaszecsőd,47.04531,16.67482
Molvány,46.03007,17.74444
Monaj,48.3,20.95
Monok,48.21102,21.15052
Monor,47.35133,19.44733
Monorierdő,47.31008,19.50316
Mónosbél,48.03402,20.33183
Monostorapáti,46.92388,17.55296
Monostorpályi,47.4,21.78333
Monoszló,46.90278,17.63941
Monyoród,46.01045,18.47639
Mór,47.37787,18.20353
Mórágy,46.21589,18.64319
Mórahalom,46.21806,19.8851
Móricgát,46.63235,19.67016
Mórichida,47.51326,17.41947
Mosdós,46.35379,17.98853
Mosonmagyaróvár,47.86789,17.26994
Mosonszentmiklós,47.72778,17.42784
Mosonszolnok,47.85146,17.17392
Mosonudvar,47.84393,17.22739
Mozsgó,46.11745,17.85031
Mőcsény,46.25852,18.59024
Mucsfa,46.35534,18.41961
Mucsi,46.43086,18.39105
Múcsony,48.26667,20.68333
Muhi,47.98333,20.93333
Murakeresztúr,46.36422,16.88177
Murarátka,46.45746,16.67351
Muraszemenye,46.46667,16.61667
Murga,46.46151,18.48742
Murga,46.46627,18.46362
Murony,46.76667,21.05
Nábrád,48.00565,22.44702
Nadap,47.25664,18.61519
Nádasd,46.96761,16.61141
Nádasdladány,47.13826,18.23972
Nádudvar,47.41667,21.16667
Nágocs,46.66254,17.96667
Nagyacsád,47.36533,17.37361
Nagyalásony,47.23006,17.35698
Nagyar,48.05596,22.55198
Nagyatád,46.22961,17.35788
Nagybajcs,47.76607,17.68858
Nagybajom,46.39232,17.51147
Nagybakónak,46.55376,17.04376
Nagybánhegyes,46.46667,20.9
Nagybaracska,46.04248,18.9059
Nagybarca,48.25,20.53333
Nagybárkány,47.99733,19.70124
Nagyberény,46.79813,18.16542
Nagyberki,46.35776,18.00743
Nagybörzsöny,47.93466,18.82381
Nagybudmér,45.93611,18.44556
Nagycenk,47.60435,16.69732
Nagycsány,45.87171,17.94431
Nagycsécs,47.96667,20.95
Nagycsepely,46.75118,17.83527
Nagycserkesz,47.96667,21.53333
Nagydém,47.43895,17.67307
Nagydobos,48.05759,22.30423
Nagydobsza,46.03333,17.66667
Nagydorog,46.62749,18.65565
Nagyecsed,47.86547,22.39159
Nagyér,46.36667,20.73333
Nagyér,47.51667,19.96667
Nagyesztergár,47.27632,17.9048
Nagyfüged,47.68333,20.11667
Nagygeresd,47.39478,16.93433
Nagygörbő,46.93119,17.1788
Nagygyimót,47.339,17.55183
Nagyhajmás,46.36667,18.3
Nagyhajmás,46.37536,18.2888
Nagyhalász,48.13266,21.76104
Nagyharsány,45.84739,18.39707
Nagyhegyes,47.51667,21.41667
Nagyhódos,47.96209,22.85038
Nagyhuta,48.43333,21.5
Nagyigmánd,47.64093,18.0813
Nagyiván,47.48333,20.93333
Nagykálló,47.87491,21.84082
Nagykamarás,46.46667,21.11667
Nagykanizsa,46.45347,16.99104
Nagykapornak,46.81995,16.99592
Nagykarácsony,46.87124,18.77239
Nagykáta,47.41514,19.7441
Nagykereki,47.18333,21.8
Nagykeresztúr,48.03333,19.73333
Nagykinizs,48.23333,21.03333
Nagykónyi,46.59066,18.2028
Nagykorpád,46.26238,17.45619
Nagykovácsi,47.65,19.01667
Nagykovácsi,47.57523,18.87337
Nagykozár,46.066,18.31991
Nagykökényes,47.73371,19.59867
Nagykölked,47.06743,16.55273
Nagykőrös,47.03419,19.77857
Nagykörű,47.26667,20.45
Nagykutas,46.9277,16.80573
Nagylak,46.17368,20.71147
Nagylengyel,46.78028,16.76403
Nagylóc,48.03419,19.57829
Nagylók,46.97627,18.64636
Nagylózs,47.56496,16.76823
Nagymágocs,46.58333,20.5
Nagymányok,46.27911,18.45489
Nagymaros,47.7928,18.95984
Nagymizdó,46.9913,16.6551
Nagynyárád,45.94428,18.57846
Nagyoroszi,48.00503,19.0905
Nagypáli,46.91104,16.84501
Nagypall,46.14431,18.45583
Nagypeterd,46.04647,17.89857
Nagypirit,47.19847,17.22515
Nagyrábé,47.2,21.33333
Nagyrada,46.61852,17.11839
Nagyrákos,46.83032,16.46112
Nagyrécse,46.48986,17.0524
Nagyréde,47.76543,19.84819
Nagyrév,46.94581,20.14322
Nagyrév,46.55,20.11667
Nagyrozvágy,48.34184,21.92069
Nagysáp,47.6851,18.59842
Nagysimonyi,47.26301,17.06387
Nagyszakácsi,46.48717,17.32081
Nagyszékely,46.6486,18.53151
Nagyszekeres,47.96406,22.60786
Nagyszénás,46.68333,20.66667
Nagyszentjános,47.71035,17.86963
Nagyszokoly,46.72235,18.20825
Nagytálya,47.81667,20.41667
Nagytarcsa,47.53128,19.28343
Nagytevel,47.29242,17.57151
Nagytilaj,46.97333,16.96528
Nagytótfalu,45.86389,18.34528
Nagytőke,46.75721,20.28763
Nagyút,47.71667,20.16667
Nagyvarsány,48.16186,22.28343
Nagyváty,46.06114,17.93284
Nagyvázsony,46.98301,17.69625
Nagyvejke,46.37536,18.44484
Nagyveleg,47.35976,18.10959
Nagyvenyim,46.95764,18.86353
Nagyvisnyó,48.13333,20.43333
Nak,46.48115,18.05162
Napkor,47.93797,21.86763
Nárai,47.1924,16.55502
Narda,47.23904,16.46078
Naszály,47.70329,18.25751
Naszály,47.83333,19.15
Négyes,47.7,20.71667
Nekézseny,48.16667,20.43333
Nemesapáti,46.86867,16.95048
Nemesbikk,47.88333,20.96667
Nemesborzova,47.99304,22.63233
Nemesbőd,47.2695,16.73333
Nemesbük,46.81667,17.15
Nemescsó,47.35,16.61667
Nemesdéd,46.4331,17.24745
Nemesgörzsöny,47.3979,17.36283
Nemesgulács,46.83485,17.48307
Nemeshany,47.06983,17.36481
Nemeshetés,46.80129,16.91248
Nemeske,46.02013,17.71296
Nemeskér,47.48333,16.80556
Nemeskeresztúr,47.09362,17.19034
Nemeskisfalud,46.44059,17.36667
Nemeskocs,47.2012,17.18715
Nemeskolta,47.14236,16.76678
Nemesládony,47.40022,16.8854
Nemesmedves,46.9973,16.40114
Nemesnádudvar,46.34051,19.05115
Nemesnép,46.70065,16.45684
Nemespátró,46.32728,17.00386
Nemesrádó,46.77868,16.99408
Nemesrempehollós,47.09468,16.68017
Nemessándorháza,46.78428,16.94823
Nemesvámos,47.05514,17.87477
Nemesvid,46.49719,17.25652
Nemesvita,46.82484,17.36683
Nemesszalók,47.27529,17.29963
Nemesszentandrás,46.77796,16.95302
Németbánya,47.21763,17.65225
Németfalu,46.81618,16.68569
Németkér,46.71637,18.76311
Nemti,48.00791,19.89819
Neszmély,47.73585,18.35966
Nézsa,47.84428,19.30298
Nick,47.40256,17.01959
Nikla,46.58086,17.51362
Nógrád,47.90852,19.04806
Nógrádkövesd,47.87428,19.37401
Nógrádmarcal,48.02715,19.38591
Nógrádmegyer,48.06829,19.62486
Nógrádmegyer,48.06667,19.63333
Nógrádsáp,47.83887,19.35504
Nógrádsipek,48.00782,19.50333
Nógrádszakál,48.18286,19.52591
Nóráp,47.27306,17.45671
Noszlop,46.36541,18.55476
Noszlop,47.18213,17.45882
Noszvaj,47.93333,20.48333
Nova,46.68507,16.67651
Novaj,47.85,20.48333
Novajidrány,48.4,21.18333
Nőtincs,47.88535,19.14426
Nyalka,47.54357,17.80832
Nyárád,47.28708,17.36447
Nyáregyháza,47.26175,19.50146
Nyárlőrinc,46.86017,19.87836
Nyársapát,47.094,19.80628
Nyékládháza,47.98333,20.83333
Nyergesújfalu,47.76027,18.55694
Nyésta,48.36667,20.95
Nyim,46.80405,18.10904
Nyírábrány,47.55311,22.02401
Nyíracsád,47.6033,21.97208
Nyirád,47.00425,17.45174
Nyíradony,47.69746,21.91878
Nyírbátor,47.83333,22.13333
Nyírbéltek,47.7,22.13333
Nyírbogát,47.8034,22.06561
Nyírbogdány,48.05723,21.88242
Nyírcsaholy,47.90383,22.3363
Nyírcsászári,47.86568,22.1754
Nyírderzs,47.89895,22.16099
Nyíregyháza,47.95539,21.71671
Nyírgelse,47.76345,21.9813
Nyírgyulaj,47.88622,22.09781
Nyíri,48.5,21.45
Nyíribrony,48.01877,21.96099
Nyírjákó,48.03029,22.07568
Nyírkarász,48.09477,22.10463
Nyírkáta,47.86807,22.25435
Nyírkércs,48.01853,22.04637
Nyírlövő,48.2,22.17908
Nyírlugos,47.69315,22.04476
Nyírmada,48.06667,22.2
Nyírmártonfalva,47.58333,21.9
Nyírmeggyes,47.91667,22.26667
Nyírmihálydi,47.73976,21.96445
Nyírparasznya,48.02688,22.27666
Nyírpazony,47.98333,21.8
Nyírpilis,47.78298,22.1822
Nyírtass,48.11667,22.03333
Nyírtelek,48.01667,21.63333
Nyírtét,48.00605,21.92757
Nyírtura,48.01419,21.83467
Nyírvasvári,47.81667,22.18683
Nyomár,48.2755,20.82025
Nyőgér,47.1805,16.93715
Nyugotszenterzsébet,46.07673,17.91122
Nyúl,47.59047,17.68904
Óbánya,46.22104,18.41029
Óbarok,47.4923,18.56784
Óbudavár,46.93812,17.69059
Ócsa,47.53333,21.9
Ócsa,47.29986,19.23057
Ócsárd,45.93417,18.15194
Ófalu,46.22076,18.53239
Ófehértó,47.93333,22.05
Óföldeák,46.3,20.45
Óhíd,46.96238,17.17088
Okány,46.9,21.35
Okorág,45.92593,17.87512
Okorvölgy,46.15237,18.05889
Olasz,46.00962,18.4144
Olaszfa,47.01372,16.8829
Olaszfalu,47.24405,17.90531
Olaszliszka,48.25,21.43333
Olcsva,48.0898,22.33403
Olcsvaapáti,48.08849,22.351
Old,45.78894,18.35233
Ólmod,47.41438,16.58961
Oltárc,46.53291,16.83754
Onga,48.11667,20.91667
Ónod,48,20.91667
Ópályi,47.99771,22.32617
Ópusztaszer,46.48592,20.08722
Orbányosfa,46.8533,16.98167
Orci,46.40726,17.8745
Ordacsehi,46.74088,17.62355
Ordas,45.98333,18.68333
Ordas,46.6359,18.94634
Orfalu,46.88155,16.26955
Orfű,46.13333,18.15
Orgovány,46.75087,19.47259
Ormándlak,46.75742,16.75374
Ormosbánya,48.35,20.65
Orosháza,46.56667,20.66667
Oroszi,47.15556,17.41645
Oroszlány,47.48671,18.31225
Oroszló,46.2184,18.12327
Orosztony,46.62773,17.06187
Ortaháza,46.62254,16.68204
Osli,47.63772,17.07517
Ostffyasszonyfa,47.32872,17.04123
Ostoros,47.86667,20.43333
Oszkó,47.03835,16.8769
Oszlár,47.87404,21.03343
Osztopán,46.51921,17.66997
Ózd,48.21667,20.3
Ózdfalu,45.92917,18.02167
Ozmánbük,46.92302,16.67128
Ozora,46.75133,18.4001
Öcs,47.00136,17.61209
Őcsény,46.3137,18.75749
Öcsöd,46.9,20.4
Ököritófülpös,47.91862,22.5081
Ölbő,47.30109,16.86121
Ömböly,47.7,22.21667
Őr,47.97214,22.18737
Őrbottyán,47.68711,19.28239
Öregcsertő,46.51809,19.11546
Öreglak,46.60099,17.62154
Őrhalom,48.07848,19.41067
Őrimagyarósd,46.88847,16.53626
Őriszentpéter,46.84083,16.42944
Örkény,47.12991,19.43324
Örményes,47.2,20.58333
Örménykút,46.85,20.78333
Őrtilos,46.2843,16.92724
Örvényes,46.91502,17.81576
Ősagárd,47.85853,19.19344
Ősi,47.14722,18.18833
Öskü,47.16003,18.07327
Öttevény,47.71946,17.48474
Öttömös,46.28157,19.68204
Ötvöskónyi,46.28741,17.36003
Pácin,48.3348,21.83608
Pacsa,46.85,16.58333
Pacsa,46.71981,17.01401
Pácsony,47.01645,16.85565
Padár,46.8519,17.0159
Páhi,46.71287,19.38687
Páka,46.59266,16.64617
Páka,46.78333,19.86667
Pakod,46.95867,17.00578
Pákozd,47.21369,18.53306
Paks,46.6221,18.85569
Palé,46.26015,18.07001
Pálfa,46.71221,18.60883
Pálfiszeg,46.78193,16.72951
Pálháza,48.46667,21.51667
Páli,47.47544,17.16545
Palkonya,45.8967,18.38979
Pálmajor,47.16667,21.18333
Pálmajor,46.86667,20.55
Pálmajor,47.7,17.46667
Pálmajor,47.16468,18.64814
Pálmajor,47.16688,18.30928
Pálmajor,47.1,17.6
Pálmajor,46.92304,18.39648
Pálmajor,46.66213,17.46098
Pálmajor,46.38333,17.56667
Pálmajor,48.09572,19.54134
Pálmajor,46.93333,16.75
Pálmajor,46.5,17.65
Pálmonostora,46.62417,19.95156
Pálosvörösmart,47.81547,19.99722
Palotabozsok,46.12691,18.64202
Palotás,47.26667,20.25
Palotás,47.79528,19.59618
Paloznak,46.98389,17.9402
Pamlény,48.5,20.93333
Pamuk,46.55325,17.6384
Pánd,47.35333,19.63571
Pankasz,46.83768,16.49864
Pannonhalma,47.54946,17.75535
Pannonhalma,47.53333,17.78333
Pányok,48.52981,21.34771
Panyola,48.04415,22.39291
Pap,48.21635,22.14511
Pápa,47.33004,17.4674
Pápadereske,47.29269,17.40085
Pápakovácsi,47.26438,17.48772
Pápasalamon,47.22832,17.42384
Pápateszér,47.3813,17.70161
Papkeszi,47.08333,18.08333
Pápoc,47.41289,17.13175
Papos,47.98333,22.25
Páprád,45.8925,18.00972
Parád,47.92323,20.02972
Parádsasvár,47.9126,19.97709
Parasznya,48.16667,20.65
Pári,46.57858,18.25708
Paszab,48.15,21.68333
Pásztó,47.92019,19.69829
Pásztori,47.55609,17.27105
Pat,46.43935,17.18358
Patak,48.06667,20.18333
Patak,48.02294,19.14523
Patak,46.55,18.03333
Patalom,46.44845,17.92287
Patapoklosi,46.07543,17.74302
Patca,46.28482,17.7236
Pátka,47.27853,18.48776
Patosfa,46.13036,17.66645
Pátroha,48.16667,22
Patvarc,48.06506,19.34684
Páty,47.51709,18.82851
Pátyod,47.8687,22.6187
Pázmánd,47.28755,18.65356
Pázmándfalu,47.5702,17.78558
Pécel,47.48962,19.34162
Pecöl,47.20517,16.8211
Pécs,46.0725,18.23083
Pécsbagota,45.99028,18.07333
Pécsdevecser,45.95933,18.38437
Pécsely,46.95657,17.79009
Pécsudvard,46.01108,18.27335
Pécsvárad,46.16033,18.42321
Pellérd,46.03438,18.15403
Pély,47.48333,20.35
Penc,47.80262,19.24906
Penészlek,47.63333,22.15
Pénzesgyőr,47.22889,17.7915
Penyige,47.99623,22.56387
Pér,47.61153,17.80632
Perbál,47.58957,18.76099
Pere,48.28469,21.11808
Perecse,48.5,21
Pereked,46.09372,18.37648
Perenye,47.29149,16.5757
Peresznye,47.42384,16.65114
Pereszteg,47.59205,16.73437
Perkáta,47.04701,18.78734
Perkupa,48.46667,20.7
Perőcsény,47.99348,18.85735
Peterd,45.97289,18.36028
Péterhida,46.01022,17.35926
Péteri,47.39104,19.40981
Pétervására,48.01667,20.1
Pétfürdő,47.16667,18.11667
Pethőhenye,46.8795,16.91107
Petneháza,48.06084,22.07485
Petőfibánya,47.7696,19.69988
Petőfiszállás,46.62175,19.8621
Petőháza,47.59744,16.89354
Petőmihályfa,46.98088,16.78661
Petrikeresztúr,46.7412,16.72642
Petrivente,46.4401,16.84195
Pettend,47.26356,18.71633
Pettend,46,17.7
Piliny,48.14096,19.59895
Pilis,48.33333,20.7
Pilis,47.28904,19.54848
Pilis,47.7,18.95
Pilis,47.68333,18.88333
Pilisborosjenő,47.60744,18.99322
Piliscsaba,47.63417,18.82886
Piliscsév,47.67924,18.81872
Pilisjászfalu,47.65533,18.78937
Pilismarót,47.78464,18.87539
Pilisvörösvár,47.61386,18.90893
Pilisszántó,47.66909,18.88762
Pilisszentiván,47.60964,18.8994
Pilisszentkereszt,47.69143,18.90503
Pilisszentlászló,47.71667,19
Pincehely,46.68095,18.43935
Pinkamindszent,47.03813,16.48312
Pinnye,47.58492,16.7691
Piricse,47.77271,22.15435
Pirtó,46.51381,19.43229
Pirtó,46.49836,19.40895
Pirtó,46.51667,19.43333
Piskó,45.81345,17.93701
Pitvaros,46.31667,20.73333
Pócsa,45.90972,18.47083
Pocsaj,47.28333,21.81667
Pócsmegyer,47.7153,19.09596
Pócspetri,47.88721,21.9931
Pogány,45.98,18.26
Pogányszentpéter,46.38478,17.06305
Pókaszepetk,46.92472,16.96833
Polány,46.55864,17.77336
Polgár,47.86667,21.11667
Polgárdi,46.48333,19.25
Polgárdi,47.06099,18.302
Pomáz,47.64227,19.02784
Porcsalma,47.88333,22.56667
Pornóapáti,47.15634,16.46456
Poroszló,47.65,20.66667
Porpác,47.24166,16.80273
Porrog,46.29136,17.03569
Porrogszentkirály,46.27796,17.04016
Porrogszentpál,46.28677,17.01534
Pórszombat,46.72897,16.57539
Porva,47.30752,17.81502
Pósfa,47.32962,16.85229
Potony,45.93114,17.64677
Potyond,47.54939,17.18175
Pölöske,46.75528,16.92405
Pölöske,47.19356,17.51405
Pölöskefő,46.60393,16.94646
Pörböly,46.20562,18.81237
Pördefölde,46.58839,16.71052
Pötréte,46.68004,16.95022
Prügy,48.08333,21.25
Pula,46.99893,17.64957
Pula,46.38333,18.11667
Pusztaapáti,46.76312,16.6099
Pusztaberki,47.9751,19.16228
Pusztacsalád,47.48573,16.90207
Pusztacsó,47.33279,16.62101
Pusztadobos,48.05823,22.22901
Pusztaederics,46.63925,16.79984
Pusztafalu,48.55,21.5
Pusztaföldvár,46.53333,20.8
Pusztahencse,46.6,18.71667
Pusztakovácsi,46.53226,17.57244
Pusztamagyaród,46.60405,16.83164
Pusztamérges,46.32852,19.685
Pusztamiske,47.06121,17.44978
Pusztamonostor,47.5559,19.79657
Pusztaottlaka,46.55,20.98333
Pusztaradvány,48.46667,21.13333
Pusztaszabolcs,47.13718,18.76704
Pusztaszemes,46.76667,17.93333
Pusztaszentlászló,46.64081,16.8421
Pusztaszer,46.55083,19.98823
Pusztavacs,47.17162,19.49924
Pusztavám,47.42948,18.22648
Pusztazámor,47.40384,18.78024
Putnok,48.3,20.43333
Püski,47.88479,17.40755
Püspökhatvan,47.7758,19.36276
Püspökladány,47.31667,21.11667
Püspökmolnári,47.09182,16.80502
Püspökszilágy,47.74042,19.31415
Rábacsanak,47.52602,17.28989
Rábacsécsény,47.58608,17.4238
Rábagyarmat,46.9409,16.4225
Rábahídvég,47.07299,16.74236
Rábakecöl,47.43248,17.11423
Rábapatona,47.63224,17.48004
Rábapaty,47.29507,16.93479
Rábapordány,47.55765,17.32749
Rábasebes,47.44027,17.24228
Rábaszentandrás,47.45914,17.32944
Rábaszentmihály,47.57751,17.43247
Rábaszentmiklós,47.53827,17.41849
Rábatamási,47.58784,17.16959
Rábatöttös,47.12948,16.80694
Rábcakapi,47.70901,17.27566
Rácalmás,47.02263,18.94056
Ráckeresztúr,47.2736,18.83343
Ráckeve,47.16095,18.94478
Rád,47.7921,19.21792
Rádfalva,45.85972,18.12583
Rádóckölked,47.07733,16.59051
Radostyán,48.17883,20.65323
Ragály,48.4,20.51667
Rajka,47.99643,17.19821
Rakaca,48.43333,20.75
Rakaca,48.46667,20.9
Rakacaszend,48.46667,20.85
Rakamaz,48.12372,21.46429
Rákóczibánya,48.03027,19.87232
Rákóczifalva,47.08333,20.23333
Rákócziújfalu,47.06667,20.26667
Ráksi,46.51733,17.91841
Ramocsa,46.77634,16.44569
Ramocsaháza,48.04289,21.98038
Rápolt,47.91921,22.55343
Raposka,46.84911,17.42485
Rásonysápberencs,48.31667,21
Rátka,48.21667,21.23333
Rátka,46.88333,17.05
Rátót,46.96492,16.42802
Ravazd,47.5142,17.75364
Recsk,47.93333,20.11667
Réde,47.4298,17.91378
Rédics,46.61417,16.4775
Regéc,48.4,21.35
Regenye,45.97002,18.16844
Regöly,46.58025,18.38823
Rém,46.24726,19.14139
Remeteszőlős,47.56031,18.92
Répáshuta,48.05,20.53333
Répcelak,47.42105,17.01795
Répceszemere,47.42758,16.97438
Répceszentgyörgy,47.35251,16.84684
Répcevis,47.44215,16.67147
Resznek,46.66219,16.47458
Rétalap,47.6061,17.90896
Rétközberencs,48.20888,22.0085
Rétság,47.92816,19.1372
Révfülöp,46.82573,17.61967
Révleányvár,48.32379,22.04246
Rezi,46.8434,17.22038
Ricse,48.32565,21.97069
Ricse,47.6,21.9
Rigács,47.06568,17.21532
Rigyác,46.46916,16.86312
Rimóc,48.03695,19.5301
Rinyabesenyő,46.16667,17.51667
Rinyakovácsi,46.28369,17.59732
Rinyaszentkirály,46.15244,17.38721
Rinyaújlak,46.0845,17.42365
Rinyaújnép,46.07975,17.35262
Rohod,48.02744,22.13274
Románd,47.44797,17.79175
Romhány,47.92618,19.25723
Romonya,46.08717,18.33941
Rózsafa,46.02193,17.88838
Rozsály,47.91987,22.7989
Rózsaszentmárton,47.782,19.7421
Röjtökmuzsaj,47.55645,16.83565
Rönök,46.97711,16.36047
Röszke,46.18796,20.03372
Rudabánya,48.38333,20.63333
Rudolftelep,48.30936,20.67029
Rum,47.12941,16.84345
Ruzsa,46.28806,19.74714
Ságújfalu,48.10362,19.67981
Ságvár,46.83662,18.10135
Sajóbábony,48.16667,20.73333
Sajóecseg,48.2,20.78333
Sajógalgóc,48.29297,20.53246
Sajóhídvég,48,20.95
Sajóivánka,48.26667,20.58333
Sajókápolna,48.2,20.7
Sajókaza,48.28333,20.58333
Sajókeresztúr,48.16667,20.78333
Sajólád,48.04027,20.90247
Sajólászlófalva,48.18494,20.67388
Sajómercse,48.25,20.41667
Sajónémeti,48.26667,20.38333
Sajóörös,47.95,21.03333
Sajópálfala,48.16667,20.85
Sajópetri,48.03512,20.88791
Sajópüspöki,48.28333,20.35
Sajósenye,48.19488,20.81839
Sajószentpéter,48.21667,20.71667
Sajószöged,47.95,21
Sajóvámos,48.18171,20.83149
Sajóvelezd,48.26667,20.46667
Sajtoskál,47.40262,16.85412
Salföld,46.8335,17.5505
Salgótarján,48.09872,19.80303
Salköveskút,47.29586,16.69509
Salomvár,46.84889,16.66333
Sály,47.95,20.66667
Sámod,45.85444,18.0375
Sámsonháza,47.98733,19.72467
Sand,46.42227,17.12288
Sándorfalva,46.36087,20.09889
Sántos,46.34241,17.87867
Sántos,46.35,17.9
Sáp,46.60333,20.27381
Sáp,47.25,21.36667
Sáránd,47.4,21.63333
Sárazsadány,48.26667,21.5
Sárbogárd,46.88692,18.62041
Sáregres,46.78089,18.59244
Sárfimizdó,46.94237,16.71633
Sárhida,46.75693,16.84243
Sárisáp,47.677,18.67933
Sarkad,46.75,21.38333
Sarkad,48.18333,21.26667
Sarkadkeresztúr,46.8,21.38333
Sárkeresztes,47.25482,18.34882
Sárkeresztúr,47.0054,18.54391
Sárkeszi,47.15821,18.28644
Sármellék,46.71221,17.16865
Sárok,45.84225,18.61187
Sárosd,47.04273,18.64357
Sárospatak,48.3245,21.57383
Sárpilis,46.24857,18.74239
Sárrétudvari,47.23333,21.2
Sarród,47.63516,16.8618
Sárszentágota,46.97187,18.56589
Sárszentlőrinc,46.62426,18.60466
Sárszentmihály,47.15321,18.33879
Sarud,47.58333,20.6
Sárvár,47.25395,16.93525
Sásd,46.2552,18.10776
Sáska,46.93611,17.47788
Sáta,48.18333,20.4
Sátoraljaújhely,48.39492,21.65871
Sátorhely,45.94185,18.63293
Sávoly,46.5915,17.26848
Sé,47.24323,16.55588
Segesd,46.34142,17.35132
Selyeb,48.33333,20.96667
Sellye,45.87247,17.84711
Semjén,48.35009,21.97225
Semjénháza,46.40024,16.84596
Sénye,46.89609,17.1353
Sényő,48.00512,21.88
Seregélyes,47.1105,18.565
Serényfalva,48.31667,20.4
Sérsekszőlős,46.76446,18.01544
Sikátor,47.32393,18.11534
Sikátor,47.43719,17.85043
Siklós,45.85499,18.29752
Siklósbodony,45.91028,18.12028
Siklósnagyfalu,45.8202,18.36272
Sima,48.3,21.3
Simaság,47.42518,16.84204
Simonfa,46.28413,17.8256
Simontornya,46.75462,18.5549
Sióagárd,46.39272,18.65336
Siófok,46.90413,18.058
Siójut,46.87879,18.13853
Sirok,47.93333,20.2
Sitke,47.24053,17.02308
Sobor,47.47676,17.36579
Sokorópátka,47.48076,17.70201
Solt,46.80101,19.00098
Soltszentimre,46.77136,19.28695
Soltvadkert,46.57889,19.39389
Sóly,47.13044,18.03181
Solymár,47.59246,18.93212
Som,46.80428,18.14008
Somberek,46.08048,18.65887
Somlójenő,47.12763,17.35448
Somlószőlős,47.17212,17.35849
Somlóvásárhely,47.12149,17.37564
Somlóvecse,47.19487,17.35196
Somodor,46.47464,17.8415
Somogyacsa,46.58948,17.95446
Somogyapáti,46.09125,17.74967
Somogyaracs,46.05663,17.39093
Somogyaszaló,46.45983,17.80527
Somogybabod,46.6618,17.79076
Somogybükkösd,46.30592,16.99819
Somogycsicsó,46.31057,17.13333
Somogydöröcske,46.58698,18.00531
Somogyegres,46.67337,18.02621
Somogyfajsz,46.50854,17.56644
Somogygeszti,46.51999,17.78422
Somogyhárságy,46.16187,17.77308
Somogyhatvan,46.1137,17.7137
Somogyjád,46.49041,17.71619
Somogymeggyes,46.71831,17.90982
Somogysámson,46.58762,17.29687
Somogysárd,46.41528,17.59889
Somogysimonyi,46.48787,17.20957
Somogyszentpál,46.64173,17.47357
Somogyszil,46.51881,17.99818
Somogyszob,46.29011,17.30035
Somogytúr,46.70818,17.76601
Somogyudvarhely,46.17401,17.18861
Somogyvámos,46.57248,17.68473
Somogyvár,46.5814,17.66289
Somogyviszló,46.11527,17.76485
Somogyzsitfa,46.56205,17.29447
Somoskőújfalu,48.16374,19.82303
Sonkád,48.05508,22.74871
Soponya,47.01485,18.45343
Sopron,47.68501,16.59049
Sopronhorpács,47.48342,16.7353
Sopronkövesd,47.54476,16.74513
Sopronnémeti,47.53638,17.20692
Sorkifalud,47.13159,16.74457
Sorkikápolna,47.14024,16.70352
Sormás,46.46055,16.91599
Sormás,46.44948,16.91015
Sorokpolány,47.13628,16.67179
Sóshartyán,48.07314,19.67914
Sóskút,46.81164,19.08231
Sóskút,47.40665,18.82247
Sóstófalva,48.15,21
Sósvertike,45.83537,17.8599
Sótony,47.19967,16.95502
Söjtör,46.67354,16.85386
Söpte,47.28628,16.65153
Söpte,47.28333,16.65
Söréd,47.32427,18.27926
Sukoró,47.23929,18.60338
Sumony,45.9686,17.917
Súr,47.36902,18.03044
Surd,46.32256,16.97042
Sükösd,46.28181,18.99524
Sülysáp,47.45206,19.53369
Sümeg,46.97703,17.28209
Sümegcsehi,46.94629,17.21526
Sümegprága,46.93952,17.27269
Süttő,47.75887,18.44873
Szabadbattyán,47.11902,18.36823
Szabadegyháza,47.07608,18.68986
Szabadhídvég,46.82307,18.28155
Szabadi,46.36791,18.03193
Szabadkígyós,46.61667,21.1
Szabadszállás,46.87575,19.22324
Szabadszentkirály,46.00572,18.04471
Szabás,46.19857,17.93693
Szabás,46.28924,17.44823
Szabolcs,48.17245,21.4956
Szabolcsbáka,48.15789,22.13956
Szabolcsveresmart,48.28988,22.01899
Szada,47.63333,19.31667
Szágy,46.2243,17.94682
Szajk,45.99265,18.53465
Szajla,47.96667,20.15
Szajol,47.18333,20.3
Szakácsi,48.38333,20.86667
Szakadát,46.53749,18.47317
Szakáld,47.95,20.91667
Szakály,46.5248,18.38227
Szakcs,46.53897,18.1095
Szakmár,46.5554,19.0753
Szaknyér,46.86413,16.52749
Szakoly,47.76667,21.91667
Szakony,47.42537,16.71547
Szakonyfalu,46.92559,16.22887
Szákszend,47.5575,18.16474
Szalafő,46.86926,16.32932
Szalánta,45.94861,18.2375
Szalapa,46.99454,17.14902
Szalaszend,48.38333,21.13333
Szalatnak,46.28996,18.28122
Szálka,46.27519,18.63838
Szalkszentmárton,46.97565,19.01178
Szalmatercs,48.12342,19.63647
Szalonna,48.45,20.75
Szamosangyalos,47.87252,22.65513
Szamosbecs,47.85903,22.68498
Szamoskér,48.01667,22.41667
Szamossályi,47.90769,22.60979
Szamostatárfalva,47.87575,22.66387
Szamosújlak,47.91548,22.58549
Szamosszeg,48.04561,22.36582
Szanda,47.92696,19.44077
Szanda,47.91353,19.40924
Szank,46.55713,19.66103
Szántód,46.86469,17.90091
Szany,47.46423,17.30402
Szápár,47.31683,18.04144
Szaporca,45.81361,18.10444
Szár,47.48082,18.51387
Szárász,46.34895,18.37363
Szárazd,46.57426,18.42476
Szárföld,47.59269,17.12227
Szárliget,47.51581,18.4948
Szarvas,46.86667,20.55
Szarvasgede,47.82133,19.64172
Szarvaskend,46.98988,16.67886
Szarvaskő,47.98843,20.32848
Szászberek,47.31667,20.1
Szászfa,48.46667,20.95
Szászvár,46.27673,18.37566
Szatmárcseke,48.0857,22.63498
Szátok,47.95629,19.23065
Szatta,46.79855,16.47962
Szatymaz,46.34306,20.0402
Szava,45.90237,18.17769
Százhalombatta,47.32949,18.93878
Szebény,46.13152,18.58591
Szécsénke,47.90514,19.33367
Szécsény,48.08057,19.52019
Szécsényfelfalu,48.14709,19.5678
Szécsisziget,46.57293,16.59331
Szederkény,46.00066,18.44838
Szedres,48.3,20.86667
Szedres,46.47551,18.68305
Szeged,46.253,20.14824
Szeged,46.24736,20.09022
Szegerdő,46.6335,17.27583
Szeghalom,47.03333,21.16667
Szegi,48.2,21.38333
Szegilong,48.21667,21.4
Szegvár,46.5874,20.22408
Székely,48.05779,21.93884
Székelyszabar,46.04452,18.60397
Székesfehérvár,47.18995,18.41034
Székkutas,46.5,20.53333
Szekszárd,46.35014,18.70905
Szeleste,47.30958,16.83268
Szelevény,46.80259,20.20283
Szellő,46.07352,18.46115
Szemely,46.00719,18.32809
Szemenye,47.1012,16.90491
Szemere,48.46667,21.1
Szemere,47.5,17.7
Szendehely,47.85553,19.10437
Szendrő,48.4,20.73333
Szendrőlád,48.35,20.75
Szenna,48.31667,21.88333
Szenna,48.23737,20.29304
Szenna,46.30828,17.73096
Szenta,46.25234,17.16991
Szentantalfa,46.9134,17.67376
Szentbalázs,46.3203,17.89554
Szentbékkálla,46.88688,17.56353
Szentborbás,45.87464,17.66001
Szentdénes,46.00709,17.92711
Szentdomonkos,48.06667,20.2
Szente,47.9664,19.28745
Szentegát,45.97416,17.82568
Szentendre,47.66943,19.07561
Szentes,46.65834,20.2608
Szentes,48.21667,21.16667
Szentgál,47.11438,17.7339
Szentgáloskér,46.5041,17.88378
Szentgotthárd,46.95261,16.27358
Szentgyörgyvár,46.75794,17.13065
Szentgyörgyvölgy,46.7235,16.41515
Szentimrefalva,47.07681,17.28006
Szentistván,47.76667,20.66667
Szentistvánbaksa,48.22366,21.02812
Szentjakabfa,46.93363,17.67595
Szentkatalin,46.17402,18.05011
Szentkirály,47.52133,19.494
Szentkirály,46.64554,19.12677
Szentkirály,46.91892,19.91846
Szentkirályszabadja,47.0576,17.97052
Szentkozmadombja,46.68092,16.76168
Szentlászló,46.67843,20.34654
Szentlászló,46.15668,17.83449
Szentliszló,46.58047,16.82325
Szentlőrinc,46.04016,17.98719
Szentlőrinckáta,47.51947,19.75286
Szentmargitfalva,46.49538,16.66001
Szentmártonkáta,47.45419,19.70143
Szentpéterfa,47.09269,16.4781
Szentpéterfölde,46.61486,16.7573
Szentpéterszeg,47.23333,21.61667
Szentpéterúr,46.76141,17.04275
Szenyér,46.46667,17.38333
Szepetnek,46.43373,16.90296
Szerecseny,47.46277,17.55499
Szeremle,46.14372,18.88124
Szerencs,48.15993,21.2097
Szerep,47.22786,21.1407
Szergény,47.32918,17.26941
Szigetbecse,47.13091,18.94814
Szigetcsép,47.26492,18.97048
Szigethalom,47.32228,19.00262
Szigetmonostor,47.68668,19.10587
Szigetszentmárton,47.22852,18.96043
Szigetszentmiklós,47.34382,19.04335
Szigetújfalu,47.23417,18.92746
Szigetvár,46.04865,17.80554
Szigliget,46.80148,17.43523
Szihalom,47.76667,20.48333
Szijártóháza,46.63357,16.43704
Szikszó,48.2,20.93333
Szil,47.5011,17.23309
Szilágy,47.71667,21.05
Szilágy,46.10124,18.40743
Szilaspogony,48.11762,20.02696
Szilsárkány,47.53965,17.25619
Szilvágy,46.73428,16.6274
Szilvágy,46.55,16.78333
Szilvás,47.01667,21.5
Szilvás,46.66824,17.76337
Szilvás,45.9628,18.19959
Szilvás,47.71415,16.57689
Szilvásvárad,48.1,20.4
Szilvásszentmárton,46.26873,17.71403
Szin,48.5,20.66667
Szinpetri,48.48333,20.63333
Szirák,47.83095,19.53105
Szirmabesenyő,48.15,20.8
Szob,47.81921,18.8702
Szokolya,48.3,21.38333
Szokolya,48.26667,21.3
Szokolya,47.86766,19.00713
Szólád,46.78993,17.8387
Szolnok,47.18333,20.2
Szolnok,47.12286,20.2355
Szombathely,47.23088,16.62155
Szombathely,47.26667,16.63333
Szomód,47.68492,18.34061
Szomolya,47.9,20.5
Szomolya,46.29969,20.22545
Szomor,47.59204,18.66367
Szorgalmatos,47.9878,21.372
Szorosad,46.60198,18.02358
Szőc,47.02147,17.51459
Szőce,46.88927,16.57183
Sződ,47.72439,19.17046
Sződliget,47.73259,19.14749
Szögliget,48.51667,20.68333
Szőke,45.96,18.18583
Szőkéd,45.9661,18.28818
Szőkedencs,46.55932,17.24893
Szőlősardó,48.45,20.63333
Szőlősgyörök,46.70915,17.67547
Szörény,45.96753,17.68204
Szúcs,48.05,20.25
Szuha,48.21667,20.73333
Szuha,47.97924,19.91895
Szuhafő,48.41667,20.45
Szuhakálló,48.28343,20.65238
Szuhogy,48.38333,20.68333
Szulimán,46.12756,17.80305
Szulok,46.05264,17.55024
Szurdokpüspöki,47.85923,19.69218
Szűcsi,47.8,19.76667
Szügy,48.03527,19.32526
Szűr,46.1,18.58333
Tab,46.73135,18.03201
Tabajd,47.40749,18.62509
Tabdi,46.68194,19.3265
Táborfalva,47.09942,19.47837
Tác,47.08237,18.39979
Tagyon,46.90272,17.6797
Tahitótfalu,47.75161,19.07886
Takácsi,47.39915,17.47091
Tákos,48.15248,22.42796
Taksony,47.32968,19.06695
Taktabáj,48.06667,21.31667
Taktaharkány,48.08333,21.13333
Taktakenéz,48.05,21.21667
Taktaszada,48.11667,21.18333
Taliándörögd,46.98028,17.5683
Tállya,48.23333,21.23333
Tamási,46.63333,18.28333
Tanakajd,47.18615,16.73939
Táp,47.51999,17.82487
Tápióbicske,47.36096,19.68609
Tápiógyörgye,47.33505,19.95276
Tápióság,47.402,19.63047
Tápiószecső,47.45,19.60923
Tápiószele,47.33609,19.87724
Tápiószentmárton,47.3399,19.74648
Tápiószőlős,47.30248,19.85133
Táplánszentkereszt,47.19496,16.69613
Tapolca,46.88152,17.44117
Tapsony,46.45974,17.33779
Tápszentmiklós,47.5,17.85
Tar,47.95371,19.7461
Tarany,46.17845,17.30442
Tarcal,48.13333,21.35
Tard,47.88333,20.61667
Tardona,48.26667,20.65
Tardona,48.16667,20.53333
Tardos,47.66192,18.44416
Tarhos,46.81667,21.21667
Tarján,47.61042,18.5107
Tarján,46.26677,20.16712
Tarjánpuszta,46.75,21.45
Tarjánpuszta,47.5,17.78333
Tárkány,47.59286,18.00064
Tarnabod,47.68333,20.23333
Tarnalelesz,48.05,20.18333
Tarnaméra,47.65,20.16667
Tarnaörs,47.59499,20.05254
Tarnaszentmária,47.88333,20.2
Tarnaszentmiklós,47.53333,20.38333
Tarnazsadány,47.66667,20.16667
Tárnok,47.37327,18.84579
Tárnokréti,47.72117,17.30704
Tarpa,48.1048,22.53744
Tarrós,46.28135,18.15091
Táska,46.61626,17.52409
Tass,47.02095,19.02988
Taszár,46.37467,17.90594
Tát,47.74148,18.64813
Tata,47.65289,18.31838
Tatabánya,47.58494,18.39325
Tataháza,46.17408,19.30028
Tatárszentgyörgy,47.07942,19.37515
Tázlár,46.54824,19.51436
Téglás,47.71667,21.68333
Téglás,47.8533,19.21024
Tekenye,46.96141,17.12481
Tékes,46.28741,18.17831
Teklafalu,45.95022,17.72839
Telekes,46.93889,16.7725
Telekes,46.94341,16.76993
Telekgerendás,46.65,20.96667
Teleki,47.45,21.4
Teleki,47.01667,21.51667
Teleki,46.77137,17.82521
Telki,47.54791,18.82816
Telkibánya,48.48333,21.36667
Tengelic,46.52878,18.71117
Tengeri,45.92611,18.08806
Tengőd,46.70272,18.09744
Tenk,47.65,20.35
Tényő,47.53762,17.63858
Tépe,47.31667,21.58333
Terem,47.794,22.31587
Terény,47.94695,19.44381
Tereske,47.94906,19.20101
Teresztenye,48.44635,20.60385
Terpes,47.97405,20.15047
Tés,47.2571,18.02874
Tésa,48.03275,18.84197
Tésenfa,45.81306,18.11833
Téseny,45.94889,18.04889
Teskánd,46.8533,16.77796
Tét,47.51922,17.50802
Tetétlen,47.31667,21.3
Tetétlen,48.21189,21.07726
Tetétlen,46.7,19.03333
Tevel,46.41029,18.45617
Tibolddaróc,47.91667,20.63333
Tiborszállás,47.81509,22.40849
Tihany,46.91369,17.88918
Tikos,46.63506,17.28771
Tilaj,46.80494,17.04796
Timár,48.16667,21.46667
Tinnye,47.62039,18.77784
Tiszaadony,48.22482,22.29158
Tiszaalpár,46.81279,19.99841
Tiszabábolna,47.68333,20.81667
Tiszabecs,48.09764,22.81781
Tiszabercel,48.15,21.65
Tiszabezdéd,48.36667,22.15
Tiszabő,47.3,20.48333
Tiszabura,47.45,20.46667
Tiszacsécse,48.11031,22.74647
Tiszacsege,47.7,21
Tiszacsermely,48.23333,21.78333
Tiszadada,48.03333,21.25
Tiszaderzs,47.51667,20.65
Tiszadob,48.01667,21.16667
Tiszadorogma,47.68333,20.86667
Tiszaeszlár,48.05,21.46667
Tiszaföldvár,46.98333,20.25
Tiszafüred,47.61667,20.76667
Tiszagyenda,47.38333,20.51667
Tiszagyulaháza,47.95,21.15
Tiszaigar,47.53333,20.8
Tiszainoka,46.90407,20.1537
Tiszajenő,47.03333,20.15
Tiszakanyár,48.25,21.96667
Tiszakarád,48.2,21.71667
Tiszakécske,46.93261,20.10349
Tiszakerecseny,48.25855,22.30081
Tiszakeszi,47.78333,21
Tiszakóród,48.1041,22.71266
Tiszakürt,46.88509,20.12545
Tiszaladány,48.06667,21.41667
Tiszalök,48.01667,21.38333
Tiszalúc,48.03774,21.07261
Tiszamogyorós,48.31667,22.23333
Tiszanagyfalu,48.09208,21.4728
Tiszanána,47.56667,20.53333
Tiszaörs,47.51667,20.83333
Tiszapalkonya,47.88333,21.06667
Tiszapüspöki,47.21667,20.31667
Tiszarád,48.12536,21.79881
Tiszaroff,47.4,20.45
Tiszasas,46.82231,20.07917
Tiszasüly,47.38333,20.4
Tiszaszalka,48.18718,22.3142
Tiszaszentimre,47.48333,20.73333
Tiszaszentmárton,48.37768,22.23344
Tiszasziget,46.17471,20.16445
Tiszaszőlős,47.55707,20.71949
Tiszatardos,48.05,21.38333
Tiszatarján,47.83333,21.01667
Tiszatelek,48.19103,21.81447
Tiszatenyő,47.13333,20.38333
Tiszaug,46.85554,20.05487
Tiszaújváros,47.93333,21.08333
Tiszavalk,47.68333,20.75
Tiszavárkony,47.06667,20.18333
Tiszavasvári,47.96667,21.35
Tiszavid,48.19341,22.28856
Tisztaberek,47.95501,22.79109
Tivadar,48.06379,22.5102
Tóalmás,47.50782,19.66657
Tófalu,47.78333,20.25
Tófalu,47.6,22.06667
Tófej,46.6736,16.80134
Tófű,46.31113,18.35712
Tokaj,48.11717,21.40922
Tokod,47.72277,18.65889
Tokodaltáró,47.7339,18.68946
Tokorcs,47.26986,17.10128
Tolcsva,48.25,21.45
Tolcsva,48.28333,21.45
Told,47.11667,21.65
Tolmács,47.9294,19.10926
Tolna,46.42677,18.78248
Tolnanémedi,46.71884,18.48267
Tomajmonostora,47.43333,20.71667
Tomor,48.33333,20.88333
Tompa,46.20605,19.5391
Tompa,46.63464,16.88804
Tompaládony,47.38551,16.89422
Tordas,47.34401,18.75253
Tormafölde,46.53843,16.59167
Tormás,47.03333,19.76667
Tormás,46.23333,18
Tormás,47.43333,16.78333
Tormásliget,47.42878,16.77698
Tornabarakony,48.5,20.81667
Tornakápolna,48.46667,20.61667
Tornanádaska,48.56667,20.78333
Tornaszentandrás,48.51667,20.78333
Tornaszentjakab,48.51667,20.88333
Tornyiszentmiklós,46.52182,16.55533
Tornyosnémeti,48.51667,21.26667
Tornyospálca,48.26667,22.18333
Torony,47.24113,16.53975
Torvaj,46.76574,18.04417
Tószeg,47.1,20.15
Tótkomlós,46.41667,20.73333
Tótszentgyörgy,46.05,17.71667
Tótszentmárton,46.4219,16.80555
Tótszerdahely,46.39775,16.79992
Tótújfalu,48.12143,19.99115
Tótújfalu,45.90288,17.64396
Tótvázsony,47.00949,17.78922
Tök,47.56862,18.73147
Tököl,47.32178,18.96249
Töltéstava,47.62609,17.73376
Tömörd,47.36372,16.67572
Tömörkény,46.61716,20.04357
Törökbálint,47.42931,18.91356
Törökkoppány,46.6,18.05
Törökszentmiklós,47.18333,20.41667
Törtel,47.12209,19.93714
Töttös,45.91556,18.54222
Trizs,48.43333,20.5
Tunyogmatolcs,47.96667,22.46667
Tura,47.60924,19.60279
Túristvándi,48.05,22.65
Túrkeve,47.1,20.75
Túrony,45.9026,18.23271
Túrricse,47.97387,22.76607
Tuzsér,48.34407,22.11762
Türje,46.98366,17.10742
Tüskevár,47.11832,17.31139
Tüskevár,46.23828,17.18573
Tyukod,47.85378,22.5633
Udvar,45.90056,18.65972
Udvari,46.59384,18.51218
Ugod,47.32059,17.59991
Újbarok,47.4795,18.55939
Újcsanálos,48.13333,21.01667
Újdombrád,48.19527,21.87035
Újfehértó,47.8,21.68333
Újhartyán,47.21981,19.38638
Újiráz,46.98712,21.35546
Újireg,46.65,18.18333
Újkenéz,48.2576,22.22317
Újkér,47.46089,16.81798
Újkígyós,46.58333,21.03333
Újlengyel,47.22847,19.44943
Újléta,47.46667,21.88333
Újlőrincfalva,47.62677,20.59785
Újpetre,45.93667,18.3625
Újrónafő,47.80926,17.20134
Újsolt,46.87272,19.12067
Újszalonta,46.8,21.5
Újszász,47.3,20.08333
Újszentiván,46.18601,20.18454
Újszentmargita,47.73333,21.1
Újszilvás,47.27477,19.92477
Újtelek,46.59,19.05861
Újtikos,47.91667,21.18333
Újudvar,46.54034,16.9928
Újvárfalva,46.43587,17.57265
Ukk,47.04335,17.21547
Und,47.48914,16.69575
Úny,47.64236,18.746
Uppony,48.21667,20.43333
Ura,47.81893,22.60456
Uraiújfalu,47.37203,16.98504
Úrhida,47.13858,18.33804
Úri,47.41429,19.52762
Úrkút,47.08505,17.64393
Uszka,48.07316,22.8576
Uszód,46.57008,18.9012
Uzsa,46.89528,17.33394
Üllés,46.33611,19.84454
Üllő,47.38771,19.35533
Üröm,47.59674,19.01583
Vác,47.77591,19.13612
Vácduka,47.74599,19.20865
Vácegres,47.67619,19.36619
Váchartyán,47.72215,19.26247
Váckisújfalu,47.70542,19.34857
Vácrátót,47.70986,19.23464
Vácszentlászló,47.574,19.53771
Vadna,48.26667,20.56667
Vadosfa,47.49805,17.12871
Vág,47.44659,17.21009
Vágáshuta,48.41667,21.55
Vaja,48.00574,22.16761
Vajdácska,48.31667,21.66667
Vajszló,45.85957,17.98406
Vajta,46.71763,18.66566
Vál,47.36264,18.67931
Valkó,47.56391,19.51267
Valkonya,46.49994,16.80942
Vállaj,47.76757,22.38133
Vállus,46.84431,17.30223
Vámosatya,48.19973,22.40914
Vámoscsalád,47.39076,16.97093
Vámosgyörk,47.68429,19.92924
Vámosmikola,47.97911,18.78317
Vámosoroszi,47.99545,22.68894
Vámospércs,47.53333,21.9
Vámosújfalu,48.25753,21.45234
Vámosszabadi,47.75525,17.64774
Váncsod,47.2,21.65
Vanyarc,47.82572,19.45266
Vanyola,47.38488,17.59785
Várad,46.50095,18.85963
Várad,45.9744,17.74581
Váralja,48.26667,20.46667
Váralja,46.26924,18.43124
Varászló,46.43424,17.21634
Varászló,46.44992,17.20866
Váraszó,48.05985,20.11043
Várbalog,47.83344,17.06932
Varbó,48.1632,20.6218
Varbóc,48.46667,20.65
Várda,46.45915,17.73896
Várdomb,48.31667,22.05
Várdomb,46.25201,18.68502
Várfölde,46.55839,16.76106
Varga,46.24723,18.14305
Várgesztes,47.47478,18.39671
Várkesző,47.43126,17.31801
Várong,46.52781,18.0453
Városföld,46.81674,19.75668
Városlőd,47.14433,17.65139
Városlőd,47.17031,17.64507
Várpalota,47.19936,18.13954
Varsád,46.52214,18.52312
Varsány,48.03914,19.48991
Várvölgy,46.86955,17.29642
Vasad,47.324,19.40371
Vasalja,47.01307,16.51285
Vásárosbéc,46.18288,17.72424
Vásárosdombó,46.30622,18.1337
Vásárosfalu,47.45414,17.11496
Vásárosmiske,47.20807,17.06514
Vásárosnamény,48.12542,22.31325
Vasasszonyfa,47.31132,16.67092
Vasboldogasszony,46.94527,16.86894
Vasegerszeg,47.37422,16.92324
Vashosszúfalu,47.1111,17.06263
Vaskeresztes,47.19275,16.44773
Vaskút,46.10782,18.98514
Vasmegyer,48.11789,21.81825
Vaspör,46.91724,16.64772
Vassurány,47.28333,16.7
Vasvár,47.04928,16.79954
Vaszar,47.4,17.51667
Vászoly,46.94026,17.75858
Vasszécseny,47.1817,16.76678
Vasszentmihály,46.96983,16.40688
Vasszilvágy,47.30131,16.75284
Vát,47.28137,16.77603
Vatta,47.91667,20.75
Vázsnok,46.26526,18.12484
Vécs,47.81667,20.16667
Vecsés,47.40705,19.28648
Végegyháza,46.38333,20.86667
Vejti,45.81044,17.97096
Vékény,46.26875,18.34163
Vekerd,47.1,21.4
Velem,47.34386,16.49493
Velemér,46.73805,16.37909
Velence,46.88333,16.65
Velence,47.23855,18.65484
Velény,45.98028,18.05333
Véménd,46.15628,18.61534
Vének,47.73976,17.75831
Vép,47.23041,16.72248
Vereb,47.31386,18.62959
Veresegyház,46.8,20.45
Veresegyház,47.6459,19.29536
Verőce,47.82468,19.03484
Verpelét,47.85,20.23333
Verseg,47.72228,19.54781
Versend,45.99636,18.51166
Vértesacsa,47.37151,18.57765
Vértesboglár,47.42867,18.52475
Vérteskethely,47.48879,18.08397
Vértessomló,47.51048,18.36675
Vértestolna,47.62744,18.4546
Vértesszőlős,47.62106,18.3813
Vése,46.41323,17.29005
Vése,46.41667,17.26667
Veszkény,47.59991,17.08452
Veszprém,47.09327,17.91149
Veszprémfajsz,47.03697,17.89625
Veszprémgalsa,47.08945,17.26575
Veszprémvarsány,47.42534,17.83119
Vésztő,46.91667,21.26667
Vezseny,47.03333,20.21667
Vid,47.21361,17.33702
Vigántpetend,46.96477,17.62657
Villány,45.86889,18.45389
Villánykövesd,45.88222,18.42528
Vilmány,48.41667,21.23333
Vilonya,47.11056,18.06088
Vilyvitány,48.5,21.56667
Vinár,47.31018,17.28233
Vindornyafok,46.8561,17.17269
Vindornyalak,46.88667,17.19377
Vindornyaszőlős,46.90157,17.1533
Visegrád,47.78526,18.9709
Visnye,46.19106,17.67629
Visonta,47.78,20.02905
Viss,48.21667,21.51667
Visz,46.72607,17.78197
Viszák,46.88099,16.49681
Viszló,48.5,20.9
Visznek,47.64248,20.02772
Vitnyéd,47.58653,16.98278
Vízvár,46.08996,17.22952
Vizslás,48.05171,19.8199
Vizsoly,48.38333,21.21667
Vizsoly,47.83273,22.72172
Vokány,45.90944,18.33611
Vonyarcvashegy,46.75742,17.31172
Vöckönd,46.88866,16.95492
Völcsej,47.49699,16.76102
Vönöck,47.3142,17.16036
Vöröstó,46.97127,17.72176
Vörs,46.66475,17.26886
Zabar,48.14437,20.04914
Zádor,45.95926,17.65927
Zádorfalva,48.38333,20.48333
Zagyvarékas,47.26667,20.13333
Zagyvaszántó,47.77703,19.67092
Záhony,48.40906,22.17614
Zajk,46.48569,16.71871
Zajta,47.90681,22.79915
Zákány,46.28842,19.86371
Zákány,46.2546,16.94886
Zákányfalu,46.27586,16.94787
Zákányszék,46.27453,19.88975
Zala,46.68481,17.24689
Zala,46.74034,18.00072
Zalaapáti,46.73841,17.10669
Zalabaksa,46.7063,16.55174
Zalabér,46.97221,17.03045
Zalaboldogfa,46.89847,16.76884
Zalacsány,46.80779,17.10766
Zalacséb,46.86187,16.65794
Zalaegerszeg,46.84,16.84389
Zalaegerszeg,46.88303,16.79003
Zalaerdőd,47.05578,17.1377
Zalagyömörő,47.01918,17.22712
Zalahaláp,46.91481,17.46123
Zalaháshágy,46.88932,16.62768
Zalaigrice,46.74724,17.00992
Zalaistvánd,46.91848,16.97896
Zalakaros,46.56514,17.12488
Zalakomár,46.53795,17.18094
Zalaköveskút,46.84868,17.14249
Zalalövő,46.84802,16.5875
Zalameggyes,47.08145,17.21904
Zalamerenye,46.57128,17.0934
Zalasárszeg,46.49433,17.08053
Zalaszabar,46.6413,17.11248
Zalaszántó,46.88833,17.22777
Zalaszegvár,47.0988,17.22362
Zalaszentbalázs,46.59053,16.91771
Zalaszentgrót,46.94474,17.07925
Zalaszentgyörgy,46.87182,16.70436
Zalaszentiván,46.8902,16.89848
Zalaszentjakab,46.48763,17.13001
Zalaszentlászló,46.87726,17.11114
Zalaszentlőrinc,46.91637,16.88674
Zalaszentmárton,46.70423,17.06519
Zalaszentmihály,46.72627,16.94881
Zalaszombatfa,46.63798,16.44362
Zaláta,45.80922,17.89118
Zalatárnok,46.70111,16.75968
Zalaújlak,46.55998,17.07829
Zalavár,46.6684,17.15602
Zalavég,47.00687,17.02493
Zalkod,48.18333,21.46667
Zamárdi,46.88488,17.95366
Zámoly,47.31667,18.4081
Zánka,46.87146,17.68473
Zaránk,47.65,20.11667
Závod,46.39454,18.41635
Zebecke,46.64344,16.68605
Zebegény,47.79977,18.911
Zemplénagárd,48.35739,22.08066
Zengővárkony,46.17258,18.43197
Zichyújfalu,47.13333,18.68333
Zics,46.67912,17.97649
Ziliz,48.25,20.8
Zimány,46.42453,17.90911
Zirc,47.26362,17.87373
Zók,46.00934,18.09689
Zomba,46.41084,18.56577
Zubogy,48.38333,20.58333
Zsadány,46.91667,21.5
Zsáka,47.13333,21.43333
Zsámbék,47.54814,18.72011
Zsámbok,47.54381,19.61048
Zsana,46.40603,19.68148
Zsarolyán,47.94927,22.5911
Zsebeháza,47.51046,17.19111
Zsédeny,47.34195,16.90273
Zselickisfalud,46.27335,17.74224
Zselickislak,46.31086,17.79947
Zselicszentpál,46.30789,17.82054
Zsennye,47.11296,16.81525
Zsira,47.45761,16.67728
Zsombó,46.32566,19.97464
Zsujta,48.5,21.28333
Zsurk,48.41184,22.21955